Time,Latitude,Longitude,Course,Speed_kts,Speed_mph,Altitude_feet,ClimbRate,ReportingFacility,FlightType,FlightNumber,ScrapeTime,Time_sec,location_short,time,SEL_dB,tags,type,operator
Mon 01:00:01 PM,52.2892,6.7373,← 288°,387.0,445.0,"24,800","-1,929",FlightAware ADS-B (RTM / EHRD),Arrivals,DLH998,2025-03-24 18:38:40,46801,Co,2025-03-24 17:21:27,65.24489170601552,Aalsmeerbaan36R_L,Airbus A320 214,Delta Air Lines
Mon 01:00:02 PM,61.5622,8.8544,↙ 201°,451.0,519.0,"34,525","1,025",FlightAware ADS-B (OSL / ENGM),Arrivals,KLM1154,2025-03-24 19:37:57,46802,Co,2025-03-24 18:26:11,78.70960615852167,Zwanenburgbaan36C_L,Embraer ERJ 190-100 STD,KLM
Mon 01:00:06 PM,48.4465,11.6344,↑ 349°,278.0,320.0,"9,575","4,025",FlightAware ADS-B (EDPA),Arrivals,KLM1856,2025-03-24 19:18:23,46806,Da,2025-03-24 10:30:35,75.06570672205123,Aalsmeerbaan36R_L,Embraer ERJ190-100STD,KLM
Mon 01:00:08 PM,59.1793,17.0563,↙ 221°,400.0,460.0,"22,300","2,125",FlightAware ADS-B (BMA / ESSB),Arrivals,KLM1224,2025-03-24 19:37:57,46808,Co,2025-03-24 20:57:38,80.72031320050314,Zwanenburgbaan36C_L,Boeing 737-800,KLM
Mon 01:00:10 PM,51.4701,5.2935,↓ 163°,426.0,490.0,"27,450","1,575",FlightAware ADS-B (EHDP),Departures,KLM1937,2025-03-24 18:18:57,46810,Co,2025-03-24 09:39:53,80.09091481043761,Zwanenburgbaan36C_L,Boeing 737-800,KLM
Mon 01:00:13 PM,50.301,5.0421,↖ 332°,458.0,527.0,"35,450","-1,475",FlightAware ADS-B (ORY / LFPO),Arrivals,KLM596,2025-03-24 18:38:40,46813,Ku,2025-03-24 17:26:41,71.32310002002386,Aalsmeerbaan36R_L,Boeing 787-9,KLM
Mon 01:00:18 AM,36.2193,142.7282,↗ 46°,528.0,608.0,"26,650",850,FlightAware ADS-B (NRT / RJAA),Arrivals,KLM862,2025-03-24 19:18:23,3618,Co,2025-03-24 18:05:45,80.88888789846152,Zwanenburgbaan36C_L,Boeing 777-200,KLM
Mon 01:00:23 PM,56.0785,4.5919,↓ 184°,464.0,534.0,"38,000",-368,FlightAware ADS-B (SVG / ENZV),Arrivals,KLM1158,2025-03-24 18:58:16,46823,Co,2025-03-24 18:26:11,78.70960615852167,Zwanenburgbaan36C_L,Embraer ERJ 190-100 STD,KLM
Mon 01:00:28 PM,49.19,14.5892,← 310°,454.0,522.0,"35,875","1,056",FlightAware ADS-B (EDNX),Arrivals,KLM1906,2025-03-24 19:37:57,46828,Da,2025-03-24 13:27:39,78.855953140375,Aalsmeerbaan36R_L,Boeing 737-800,KLM
Mon 01:00:29 PM,51.602,4.4481,↓ 198°,454.0,522.0,"24,350","1,925",FlightAware ADS-B (EIN / EHEH),Departures,TRA6145,2025-03-24 18:18:57,46829,Co,2025-03-24 14:32:41,80.80796506619579,Zwanenburgbaan36C_L,Boeing 737-800,Transavia
Mon 01:00:32 PM,61.5053,8.8097,↙ 201°,453.0,521.0,"34,950",650,FlightAware ADS-B (HMR / ENHA),Arrivals,KLM1154,2025-03-24 19:37:57,46832,Co,2025-03-24 18:26:11,78.70960615852167,Zwanenburgbaan36C_L,Embraer ERJ 190-100 STD,KLM
Mon 01:00:36 PM,48.4857,11.6226,↑ 349°,285.0,328.0,"11,700","4,011",FlightAware ADS-B (MUC / EDDM),Arrivals,KLM1856,2025-03-24 19:18:23,46836,Da,2025-03-24 10:30:35,75.06570672205123,Aalsmeerbaan36R_L,Embraer ERJ190-100STD,KLM
Mon 01:00:38 PM,59.1371,16.984,↙ 221°,410.0,472.0,"23,350","2,075",FlightAware ADS-B (BLE / ESSD),Arrivals,KLM1224,2025-03-24 19:37:57,46838,Co,2025-03-24 20:57:38,80.72031320050314,Zwanenburgbaan36C_L,Boeing 737-800,KLM
Mon 01:00:40 PM,51.4152,5.3202,↓ 163°,429.0,494.0,"28,300","1,475",FlightAware ADS-B (EHTE),Departures,KLM1937,2025-03-24 18:18:57,46840,Co,2025-03-24 09:39:53,80.09091481043761,Zwanenburgbaan36C_L,Boeing 737-800,KLM
Mon 01:00:43 PM,50.3562,4.9968,↖ 332°,453.0,521.0,"34,675","-1,500",FlightAware ADS-B (EDLS),Arrivals,KLM596,2025-03-24 18:38:40,46843,Ku,2025-03-24 17:26:41,71.32310002002386,Aalsmeerbaan36R_L,Boeing 787-9,KLM
Mon 01:00:46 PM,56.0305,4.5854,↓ 185°,464.0,534.0,"37,675","-1,188",FlightAware ADS-B (ABZ / EGPD),Arrivals,KLM1158,2025-03-24 18:58:16,46846,Co,2025-03-24 18:26:11,78.70960615852167,Zwanenburgbaan36C_L,Embraer ERJ 190-100 STD,KLM
Mon 01:00:48 AM,36.2707,142.7933,↗ 46°,532.0,612.0,"27,050",861,FlightAware ADS-B (IBR / RJAH),Arrivals,KLM862,2025-03-24 19:18:23,3648,Co,2025-03-24 18:05:45,80.88888789846152,Zwanenburgbaan36C_L,Boeing 777-200,KLM
Mon 01:00:52 PM,47.1105,6.1569,↑ 1°,359.0,413.0,"28,275","1,250",FlightAware ADS-B (LUX / ELLX),Arrivals,KLM1936,2025-03-24 19:18:23,46852,Co,2025-03-24 09:39:53,80.09091481043761,Zwanenburgbaan36C_L,Boeing 737-800,KLM
Mon 01:00:59 PM,51.5402,4.4155,↓ 198°,460.0,529.0,"25,275","1,625",FlightAware ADS-B (WOE / EHWO),Departures,TRA6145,2025-03-24 18:18:57,46859,Co,2025-03-24 14:32:41,80.80796506619579,Zwanenburgbaan36C_L,Boeing 737-800,Transavia
Mon 01:01:01 PM,42.7306,1.466,↑ 356°,443.0,510.0,"36,025",169,FlightAware ADS-B (TLS / LFBO),Arrivals,KLM1518,2025-03-24 19:57:51,46861,Co,2025-03-24 12:26:18,82.0407472681304,Zwanenburgbaan36C_L,Boeing 737-800,KLM
Mon 01:01:02 PM,61.4458,8.7628,↙ 201°,458.0,527.0,"35,175",750,FlightAware ADS-B (HMR / ENHA),Arrivals,KLM1154,2025-03-24 19:37:57,46862,Co,2025-03-24 18:26:11,78.70960615852167,Zwanenburgbaan36C_L,Embraer ERJ 190-100 STD,KLM
Mon 01:01:04 PM,52.3229,6.5649,← 288°,364.0,419.0,"23,050","-1,735",FlightAware ADS-B (EHDL),Arrivals,DLH998,2025-03-24 18:38:40,46864,Co,2025-03-24 17:21:27,65.24489170601552,Aalsmeerbaan36R_L,Airbus A320 214,Delta Air Lines
Mon 01:01:06 PM,43.3972,11.7976,↑ 352°,479.0,551.0,"32,850",950,FlightAware ADS-B (VIC / LIPT),Arrivals,KLM1606,2025-03-24 19:57:51,46866,Da,2025-03-24 11:26:29,78.3267559870196,Aalsmeerbaan36R_L,Boeing 737-800,KLM
Mon 01:01:08 PM,59.0946,16.9114,↙ 221°,415.0,478.0,"24,375","1,950",FlightAware ADS-B (ESHR),Arrivals,KLM1224,2025-03-24 19:37:57,46868,Co,2025-03-24 20:57:38,80.72031320050314,Zwanenburgbaan36C_L,Boeing 737-800,KLM
Mon 01:01:10 PM,51.3561,5.3489,↓ 163°,435.0,501.0,"28,925","1,150",FlightAware ADS-B (FMO / EDDG),Departures,KLM1937,2025-03-24 18:18:57,46870,Co,2025-03-24 09:39:53,80.09091481043761,Zwanenburgbaan36C_L,Boeing 737-800,KLM
Mon 01:01:11 PM,55.976,4.5719,↓ 191°,470.0,541.0,"37,050",-827,FlightAware ADS-B (FLF / EDXF),Arrivals,KLM1158,2025-03-24 18:58:16,46871,Co,2025-03-24 18:26:11,78.70960615852167,Zwanenburgbaan36C_L,Embraer ERJ 190-100 STD,KLM
Mon 01:01:13 PM,50.4109,4.9511,↖ 332°,453.0,521.0,"33,950","-1,300",FlightAware ADS-B (EBDT),Arrivals,KLM596,2025-03-24 18:38:40,46873,Ku,2025-03-24 17:26:41,71.32310002002386,Aalsmeerbaan36R_L,Boeing 787-9,KLM
Mon 01:01:19 AM,36.3226,142.8593,↗ 46°,534.0,615.0,"27,525",968,FlightAware ADS-B (IBR / RJAH),Arrivals,KLM862,2025-03-24 19:18:23,3679,Co,2025-03-24 18:05:45,80.88888789846152,Zwanenburgbaan36C_L,Boeing 777-200,KLM
Mon 01:01:22 PM,49.2632,14.455,← 310°,450.0,518.0,"37,075","1,214",FlightAware ADS-B (LKKB),Arrivals,KLM1906,2025-03-24 19:37:57,46882,Da,2025-03-24 13:27:39,78.855953140375,Aalsmeerbaan36R_L,Boeing 737-800,KLM
Mon 01:01:27 AM,25.4329,-75.6741,↗ 40°,545.0,627.0,"39,000",-25,FlightAware ADS-B (TBI / MYCB),Arrivals,KLM760,2025-03-24 13:51:30,3687,Co,2025-03-24 12:35:12,82.57059967900375,Zwanenburgbaan36C_L,Boeing 787-9,KLM
Mon 01:01:29 PM,51.4818,4.3848,↓ 198°,467.0,537.0,"25,975","1,364",FlightAware ADS-B (EHHV),Departures,TRA6145,2025-03-24 18:18:57,46889,Co,2025-03-24 14:32:41,80.80796506619579,Zwanenburgbaan36C_L,Boeing 737-800,Transavia
Mon 01:01:32 PM,61.3842,8.7148,↙ 201°,457.0,526.0,"35,700",900,FlightAware ADS-B (ESTF),Arrivals,KLM1154,2025-03-24 19:37:57,46892,Co,2025-03-24 18:26:11,78.70960615852167,Zwanenburgbaan36C_L,Embraer ERJ 190-100 STD,KLM
Mon 01:01:33 PM,60.2568,5.2305,↓ 172°,191.0,220.0,"1,950","1,273",FlightAware ADS-B (BGO / ENBR),Arrivals,KLM1170,2025-03-24 19:37:57,46893,Co,2025-03-24 18:18:43,79.88883691281315,Zwanenburgbaan36C_L,Boeing 737-800,KLM
Mon 01:01:36 PM,43.4641,11.7842,↑ 352°,481.0,554.0,"33,300","1,000",FlightAware ADS-B (VIC / LIPT),Arrivals,KLM1606,2025-03-24 19:57:51,46896,Da,2025-03-24 11:26:29,78.3267559870196,Aalsmeerbaan36R_L,Boeing 737-800,KLM
Mon 01:01:38 PM,48.5711,11.5961,↑ 345°,348.0,400.0,"14,200","1,786",FlightAware ADS-B (EDPG),Arrivals,KLM1856,2025-03-24 19:18:23,46898,Da,2025-03-24 10:30:35,75.06570672205123,Aalsmeerbaan36R_L,Embraer ERJ190-100STD,KLM
Mon 01:01:40 PM,51.2979,5.3771,↓ 163°,443.0,510.0,"29,450","1,150",FlightAware ADS-B (DUS / EDDL),Departures,KLM1937,2025-03-24 18:18:57,46900,Co,2025-03-24 09:39:53,80.09091481043761,Zwanenburgbaan36C_L,Boeing 737-800,KLM
Mon 01:01:42 PM,42.8153,1.4717,↑ 3°,444.0,511.0,"36,000",-21,FlightAware ADS-B (LFCL),Arrivals,KLM1518,2025-03-24 19:57:51,46902,Co,2025-03-24 12:26:18,82.0407472681304,Zwanenburgbaan36C_L,Boeing 737-800,KLM
Mon 01:01:43 PM,50.4662,4.9052,↖ 332°,447.0,514.0,"33,375","-1,600",FlightAware ADS-B (ANR / EBAW),Arrivals,KLM596,2025-03-24 18:38:40,46903,Ku,2025-03-24 17:26:41,71.32310002002386,Aalsmeerbaan36R_L,Boeing 787-9,KLM
Mon 01:01:50 AM,36.378,142.9297,↗ 46°,535.0,616.0,"28,050",934,FlightAware ADS-B (NJA / RJTA),Arrivals,KLM862,2025-03-24 19:18:23,3710,Co,2025-03-24 18:05:45,80.88888789846152,Zwanenburgbaan36C_L,Boeing 777-200,KLM
Mon 01:01:50 PM,60.2404,5.235,↓ 174°,221.0,254.0,"2,350","1,909",FlightAware ADS-B (BGO / ENBR),Arrivals,KLM1170,2025-03-24 19:37:57,46910,Co,2025-03-24 18:18:43,79.88883691281315,Zwanenburgbaan36C_L,Boeing 737-800,KLM
Mon 01:01:54 PM,51.4286,4.3571,↓ 198°,475.0,547.0,"26,525","1,386",FlightAware ADS-B (BRU / EBBR),Departures,TRA6145,2025-03-24 18:18:57,46914,Co,2025-03-24 14:32:41,80.80796506619579,Zwanenburgbaan36C_L,Boeing 737-800,Transavia
Mon 01:01:55 PM,49.3067,14.3748,← 310°,446.0,513.0,"37,600",882,FlightAware ADS-B (LKHK),Arrivals,KLM1906,2025-03-24 19:37:57,46915,Da,2025-03-24 13:27:39,78.855953140375,Aalsmeerbaan36R_L,Boeing 737-800,KLM
Mon 01:01:56 PM,52.3613,4.7119,↑ 3°,150.0,173.0,875,"2,016",FlightAware ADS-B (EHHA),Departures,KLM1823,2025-03-24 18:18:57,46916,Da,2025-03-24 14:45:43,77.95329219067148,Aalsmeerbaan36R_L,Embraer ERJ 170-200 STD,KLM
Mon 01:02:02 PM,61.3271,8.6703,↙ 201°,458.0,527.0,"36,075",625,FlightAware ADS-B (HMR / ENHA),Arrivals,KLM1154,2025-03-24 19:37:57,46922,Co,2025-03-24 18:26:11,78.70960615852167,Zwanenburgbaan36C_L,Embraer ERJ 190-100 STD,KLM
Mon 01:02:05 PM,47.2338,6.1571,↑ 0°,377.0,434.0,"29,950","1,286",FlightAware ADS-B (LFKL),Arrivals,KLM1936,2025-03-24 19:18:23,46925,Co,2025-03-24 09:39:53,80.09091481043761,Zwanenburgbaan36C_L,Boeing 737-800,KLM
Mon 01:02:06 PM,60.2219,5.2397,↓ 172°,241.0,277.0,"3,000","2,719",FlightAware ADS-B (BGO / ENBR),Arrivals,KLM1170,2025-03-24 19:37:57,46926,Co,2025-03-24 18:18:43,79.88883691281315,Zwanenburgbaan36C_L,Boeing 737-800,KLM
Mon 01:02:08 PM,59.0052,16.7594,↙ 221°,432.0,497.0,"26,175","1,700",FlightAware ADS-B (ESHL),Arrivals,KLM1224,2025-03-24 19:37:57,46928,Co,2025-03-24 20:57:38,80.72031320050314,Zwanenburgbaan36C_L,Boeing 737-800,KLM
Mon 01:02:10 PM,51.239,5.4056,↓ 163°,447.0,514.0,"30,075","1,250",FlightAware ADS-B (QEF / EDFE),Departures,KLM1937,2025-03-24 18:18:57,46930,Co,2025-03-24 09:39:53,80.09091481043761,Zwanenburgbaan36C_L,Boeing 737-800,KLM
Mon 01:02:12 PM,52.3736,4.7127,↑ 3°,172.0,198.0,"1,250","1,235",FlightAware ADS-B (AMS / EHAM),Departures,KLM1823,2025-03-24 18:18:57,46932,Da,2025-03-24 14:45:43,77.95329219067148,Aalsmeerbaan36R_L,Embraer ERJ 170-200 STD,KLM
Mon 01:02:13 PM,50.519,4.8612,↖ 332°,441.0,507.0,"32,350","-1,875",FlightAware ADS-B (CGN / EDDK),Arrivals,KLM596,2025-03-24 18:38:40,46933,Ku,2025-03-24 17:26:41,71.32310002002386,Aalsmeerbaan36R_L,Boeing 787-9,KLM
Mon 01:02:20 AM,36.4284,142.994,↗ 46°,537.0,618.0,"28,475",786,FlightAware ADS-B (NRT / RJAA),Arrivals,KLM862,2025-03-24 19:18:23,3740,Co,2025-03-24 18:05:45,80.88888789846152,Zwanenburgbaan36C_L,Boeing 777-200,KLM
Mon 01:02:22 PM,47.2651,6.1575,↑ 0°,381.0,438.0,"30,300","1,333",FlightAware ADS-B (LSPK),Arrivals,KLM1936,2025-03-24 19:18:23,46942,Co,2025-03-24 09:39:53,80.09091481043761,Zwanenburgbaan36C_L,Boeing 737-800,KLM
Mon 01:02:29 PM,53.5523,6.5771,↗ 42°,392.0,451.0,"35,600",804,FlightAware ADS-B (VAC / EDWU),Departures,KLM1225,2025-03-24 18:18:57,46949,Co,2025-03-24 20:57:38,80.72031320050314,Zwanenburgbaan36C_L,Boeing 737-800,KLM
Mon 01:02:30 PM,52.3893,4.7143,↑ 4°,200.0,230.0,"1,575","1,989",FlightAware ADS-B (EHVB),Departures,KLM1823,2025-03-24 18:18:57,46950,Da,2025-03-24 14:45:43,77.95329219067148,Aalsmeerbaan36R_L,Embraer ERJ 170-200 STD,KLM
Mon 01:02:32 PM,61.2662,8.623,↓ 200°,462.0,532.0,"36,325",625,FlightAware ADS-B (SCR / ESKS),Arrivals,KLM1154,2025-03-24 19:37:57,46952,Co,2025-03-24 18:26:11,78.70960615852167,Zwanenburgbaan36C_L,Embraer ERJ 190-100 STD,KLM
Mon 01:02:35 PM,51.3436,4.3107,↙ 202°,484.0,557.0,"27,500","1,447",FlightAware ADS-B (EIN / EHEH),Departures,TRA6145,2025-03-24 18:18:57,46955,Co,2025-03-24 14:32:41,80.80796506619579,Zwanenburgbaan36C_L,Boeing 737-800,Transavia
Mon 01:02:38 PM,58.9639,16.6805,↙ 226°,434.0,499.0,"27,000","1,675",FlightAware ADS-B (BMA / ESSB),Arrivals,KLM1224,2025-03-24 19:37:57,46958,Co,2025-03-24 20:57:38,80.72031320050314,Zwanenburgbaan36C_L,Boeing 737-800,KLM
Mon 01:02:41 PM,47.2982,6.1577,↑ 0°,384.0,442.0,"30,750","1,500",FlightAware ADS-B (EDTO),Arrivals,KLM1936,2025-03-24 19:18:23,46961,Co,2025-03-24 09:39:53,80.09091481043761,Zwanenburgbaan36C_L,Boeing 737-800,KLM
Mon 01:02:42 PM,52.3709,6.3163,← 287°,348.0,400.0,"19,975","-1,850",FlightAware ADS-B (EHHV),Arrivals,DLH998,2025-03-24 18:38:40,46962,Co,2025-03-24 17:21:27,65.24489170601552,Aalsmeerbaan36R_L,Airbus A320 214,Delta Air Lines
Mon 01:02:43 PM,50.5739,4.8155,↖ 332°,434.0,499.0,"31,500","-1,500",FlightAware ADS-B (AMS / EHAM),Arrivals,KLM596,2025-03-24 18:38:40,46963,Ku,2025-03-24 17:26:41,71.32310002002386,Aalsmeerbaan36R_L,Boeing 787-9,KLM
Mon 01:02:50 PM,48.6882,11.5295,↑ 339°,393.0,452.0,"17,400","3,100",FlightAware ADS-B (OBF / EDMO),Arrivals,KLM1856,2025-03-24 19:18:23,46970,Da,2025-03-24 10:30:35,75.06570672205123,Aalsmeerbaan36R_L,Embraer ERJ190-100STD,KLM
Mon 01:02:51 PM,51.3108,4.2882,↙ 204°,486.0,559.0,"27,900","1,214",FlightAware ADS-B (EHVB),Departures,TRA6145,2025-03-24 18:18:57,46971,Co,2025-03-24 14:32:41,80.80796506619579,Zwanenburgbaan36C_L,Boeing 737-800,Transavia
Mon 01:02:53 AM,36.4844,143.0653,↗ 46°,540.0,621.0,"28,875",682,FlightAware ADS-B (IBR / RJAH),Arrivals,KLM862,2025-03-24 19:18:23,3773,Co,2025-03-24 18:05:45,80.88888789846152,Zwanenburgbaan36C_L,Boeing 777-200,KLM
Mon 01:02:53 PM,60.1687,5.2583,↓ 170°,266.0,306.0,"5,350","3,197",FlightAware ADS-B (HAU / ENHD),Arrivals,KLM1170,2025-03-24 19:37:57,46973,Co,2025-03-24 18:18:43,79.88883691281315,Zwanenburgbaan36C_L,Boeing 737-800,KLM
Mon 01:02:57 AM,25.6069,-75.5138,↗ 40°,544.0,626.0,"38,975",-25,FlightAware ADS-B (GHB / MYEM),Arrivals,KLM760,2025-03-24 13:51:30,3777,Co,2025-03-24 12:35:12,82.57059967900375,Zwanenburgbaan36C_L,Boeing 787-9,KLM
Mon 01:02:58 PM,52.4143,4.7176,↑ 7°,210.0,242.0,"2,775","2,521",FlightAware ADS-B (AMS / EHAM),Departures,KLM1823,2025-03-24 18:18:57,46978,Da,2025-03-24 14:45:43,77.95329219067148,Aalsmeerbaan36R_L,Embraer ERJ 170-200 STD,KLM
Mon 01:03:02 PM,61.2075,8.5779,↓ 200°,461.0,531.0,"36,700",800,FlightAware ADS-B (ENVE),Arrivals,KLM1154,2025-03-24 19:37:57,46982,Co,2025-03-24 18:26:11,78.70960615852167,Zwanenburgbaan36C_L,Embraer ERJ 190-100 STD,KLM
Mon 01:03:06 PM,53.6021,6.6526,↗ 42°,397.0,457.0,"36,050",694,FlightAware ADS-B (EHHA),Departures,KLM1225,2025-03-24 18:18:57,46986,Co,2025-03-24 20:57:38,80.72031320050314,Zwanenburgbaan36C_L,Boeing 737-800,KLM
Mon 01:03:12 PM,52.3848,6.2433,← 287°,343.0,395.0,"19,100","-1,725",FlightAware ADS-B (EIN / EHEH),Arrivals,DLH998,2025-03-24 18:38:40,46992,Co,2025-03-24 17:21:27,65.24489170601552,Aalsmeerbaan36R_L,Airbus A320 214,Delta Air Lines
Mon 01:03:13 PM,49.4075,14.1886,← 311°,442.0,509.0,"38,850",718,FlightAware ADS-B (MUC / EDDM),Arrivals,KLM1906,2025-03-24 19:37:57,46993,Da,2025-03-24 13:27:39,78.855953140375,Aalsmeerbaan36R_L,Boeing 737-800,KLM
Mon 01:03:17 PM,52.4333,4.7289,↗ 30°,234.0,269.0,"3,550","2,750",FlightAware ADS-B (EHTE),Departures,KLM1823,2025-03-24 18:18:57,46997,Da,2025-03-24 14:45:43,77.95329219067148,Aalsmeerbaan36R_L,Embraer ERJ 170-200 STD,KLM
Mon 01:03:18 PM,47.3623,6.1569,↑ 0°,383.0,441.0,"31,725","1,290",FlightAware ADS-B (LSTB),Arrivals,KLM1936,2025-03-24 19:18:23,46998,Co,2025-03-24 09:39:53,80.09091481043761,Zwanenburgbaan36C_L,Boeing 737-800,KLM
Mon 01:03:20 PM,48.7419,11.4984,↑ 339°,405.0,466.0,"18,875","2,925",FlightAware ADS-B (EDNX),Arrivals,KLM1856,2025-03-24 19:18:23,47000,Da,2025-03-24 10:30:35,75.06570672205123,Aalsmeerbaan36R_L,Embraer ERJ190-100STD,KLM
Mon 01:03:23 PM,60.1316,5.2719,↓ 169°,273.0,314.0,"7,050","3,300",FlightAware ADS-B (SRP / ENSO),Arrivals,KLM1170,2025-03-24 19:37:57,47003,Co,2025-03-24 18:18:43,79.88883691281315,Zwanenburgbaan36C_L,Boeing 737-800,KLM
Mon 01:03:26 AM,36.5425,143.1396,↗ 46°,545.0,627.0,"29,225",900,FlightAware ADS-B (RJTI),Arrivals,KLM862,2025-03-24 19:18:23,3806,Co,2025-03-24 18:05:45,80.88888789846152,Zwanenburgbaan36C_L,Boeing 777-200,KLM
Mon 01:03:27 PM,50.6481,4.7531,↖ 332°,417.0,480.0,"30,500","-1,848",FlightAware ADS-B (CRL / EBCI),Arrivals,KLM596,2025-03-24 18:38:40,47007,Ku,2025-03-24 17:26:41,71.32310002002386,Aalsmeerbaan36R_L,Boeing 787-9,KLM
Mon 01:03:28 PM,51.0845,5.4798,↓ 163°,449.0,517.0,"31,925","1,900",FlightAware ADS-B (EHHV),Departures,KLM1937,2025-03-24 18:18:57,47008,Co,2025-03-24 09:39:53,80.09091481043761,Zwanenburgbaan36C_L,Boeing 737-800,KLM
Mon 01:03:32 PM,61.1492,8.533,↓ 200°,460.0,529.0,"37,125",800,FlightAware ADS-B (RYG / ENRY),Arrivals,KLM1154,2025-03-24 19:37:57,47012,Co,2025-03-24 18:26:11,78.70960615852167,Zwanenburgbaan36C_L,Embraer ERJ 190-100 STD,KLM
Mon 01:03:36 PM,53.6441,6.7166,↗ 42°,401.0,461.0,"36,375",650,FlightAware ADS-B (GRQ / EHGG),Departures,KLM1225,2025-03-24 18:18:57,47016,Co,2025-03-24 20:57:38,80.72031320050314,Zwanenburgbaan36C_L,Boeing 737-800,KLM
Mon 01:03:38 PM,58.8781,16.5115,↙ 225°,446.0,513.0,"28,725","1,575",FlightAware ADS-B (KSD / ESOK),Arrivals,KLM1224,2025-03-24 19:37:57,47018,Co,2025-03-24 20:57:38,80.72031320050314,Zwanenburgbaan36C_L,Boeing 737-800,KLM
Mon 01:03:40 PM,52.4565,4.7505,↗ 30°,249.0,287.0,"4,700","2,925",FlightAware ADS-B (AMS / EHAM),Departures,KLM1823,2025-03-24 18:18:57,47020,Da,2025-03-24 14:45:43,77.95329219067148,Aalsmeerbaan36R_L,Embraer ERJ 170-200 STD,KLM
Mon 01:03:42 PM,52.399,6.169,← 287°,336.0,387.0,"18,250","-1,754",FlightAware ADS-B (ENS / EHTW),Arrivals,DLH998,2025-03-24 18:38:40,47022,Co,2025-03-24 17:21:27,65.24489170601552,Aalsmeerbaan36R_L,Airbus A320 214,Delta Air Lines
Mon 01:03:48 PM,47.4164,6.1558,↑ 0°,390.0,449.0,"32,275","1,109",FlightAware ADS-B (LSTB),Arrivals,KLM1936,2025-03-24 19:18:23,47028,Co,2025-03-24 09:39:53,80.09091481043761,Zwanenburgbaan36C_L,Boeing 737-800,KLM
Mon 01:03:50 PM,48.794,11.4679,↑ 339°,413.0,475.0,"20,325","2,813",FlightAware ADS-B (ETSA),Arrivals,KLM1856,2025-03-24 19:18:23,47030,Da,2025-03-24 10:30:35,75.06570672205123,Aalsmeerbaan36R_L,Embraer ERJ190-100STD,KLM
Mon 01:03:52 PM,50.6924,4.716,↖ 332°,420.0,483.0,"29,375","-2,373",FlightAware ADS-B (EBDT),Arrivals,KLM596,2025-03-24 18:38:40,47032,Ku,2025-03-24 17:26:41,71.32310002002386,Aalsmeerbaan36R_L,Boeing 787-9,KLM
Mon 01:03:53 PM,60.0926,5.2852,↓ 171°,281.0,323.0,"8,650","2,975",FlightAware ADS-B (BGO / ENBR),Arrivals,KLM1170,2025-03-24 19:37:57,47033,Co,2025-03-24 18:18:43,79.88883691281315,Zwanenburgbaan36C_L,Boeing 737-800,KLM
Mon 01:03:57 AM,25.7216,-75.4079,↗ 40°,544.0,626.0,"38,975",25,FlightAware ADS-B (ELH / MYEH),Arrivals,KLM760,2025-03-24 13:51:30,3837,Co,2025-03-24 12:35:12,82.57059967900375,Zwanenburgbaan36C_L,Boeing 787-9,KLM
Mon 01:03:57 PM,52.4715,4.7671,↗ 45°,262.0,302.0,"5,500","3,000",FlightAware ADS-B (AMS / EHAM),Departures,KLM1823,2025-03-24 18:18:57,47037,Da,2025-03-24 14:45:43,77.95329219067148,Aalsmeerbaan36R_L,Embraer ERJ 170-200 STD,KLM
Mon 01:03:58 AM,36.5987,143.2116,↗ 46°,542.0,624.0,"29,850","1,185",FlightAware ADS-B (SDJ / RJSS),Arrivals,KLM862,2025-03-24 19:18:23,3838,Co,2025-03-24 18:05:45,80.88888789846152,Zwanenburgbaan36C_L,Boeing 777-200,KLM
Mon 01:03:58 PM,51.0249,5.5082,↓ 163°,440.0,506.0,"32,975","1,955",FlightAware ADS-B (MGL / EDLN),Departures,KLM1937,2025-03-24 18:18:57,47038,Co,2025-03-24 09:39:53,80.09091481043761,Zwanenburgbaan36C_L,Boeing 737-800,KLM
Mon 01:04:01 PM,51.1638,4.1853,↙ 203°,501.0,577.0,"29,150","1,119",FlightAware ADS-B (BRU / EBBR),Departures,TRA6145,2025-03-24 18:18:57,47041,Co,2025-03-24 14:32:41,80.80796506619579,Zwanenburgbaan36C_L,Boeing 737-800,Transavia
Mon 01:04:02 PM,61.0884,8.4863,↓ 200°,459.0,528.0,"37,500",625,FlightAware ADS-B (MXX / ESKM),Arrivals,KLM1154,2025-03-24 19:37:57,47042,Co,2025-03-24 18:26:11,78.70960615852167,Zwanenburgbaan36C_L,Embraer ERJ 190-100 STD,KLM
Mon 01:04:04 PM,47.4421,6.1552,↑ 359°,392.0,451.0,"32,575","1,250",FlightAware ADS-B,Arrivals,KLM1936,2025-03-24 19:18:23,47044,Co,2025-03-24 09:39:53,80.09091481043761,Zwanenburgbaan36C_L,Boeing 737-800,KLM
Mon 01:04:06 PM,53.6845,6.7787,↗ 43°,405.0,466.0,"36,700",700,FlightAware ADS-B (EHTE),Departures,KLM1225,2025-03-24 18:18:57,47046,Co,2025-03-24 20:57:38,80.72031320050314,Zwanenburgbaan36C_L,Boeing 737-800,KLM
Mon 01:04:08 PM,58.8349,16.4272,↙ 225°,451.0,519.0,"29,425","1,325",FlightAware ADS-B (GVX / ESSK),Arrivals,KLM1224,2025-03-24 19:37:57,47048,Co,2025-03-24 20:57:38,80.72031320050314,Zwanenburgbaan36C_L,Boeing 737-800,KLM
Mon 01:04:13 PM,52.4817,4.7983,→ 79°,275.0,316.0,"6,350","3,771",FlightAware ADS-B (RTM / EHRD),Departures,KLM1823,2025-03-24 18:18:57,47053,Da,2025-03-24 14:45:43,77.95329219067148,Aalsmeerbaan36R_L,Embraer ERJ 170-200 STD,KLM
Mon 01:04:17 PM,52.4149,6.0853,← 287°,331.0,381.0,"17,200","-1,848",FlightAware ADS-B (AMS / EHAM),Arrivals,DLH998,2025-03-24 18:38:40,47057,Co,2025-03-24 17:21:27,65.24489170601552,Aalsmeerbaan36R_L,Airbus A320 214,Delta Air Lines
Mon 01:04:22 PM,50.7445,4.6719,↖ 332°,415.0,478.0,"28,325","-2,000",FlightAware ADS-B (EHBD),Arrivals,KLM596,2025-03-24 18:38:40,47062,Ku,2025-03-24 17:26:41,71.32310002002386,Aalsmeerbaan36R_L,Boeing 787-9,KLM
Mon 01:04:24 PM,51.1134,4.1516,↙ 203°,504.0,580.0,"29,600","1,118",FlightAware ADS-B (BRU / EBBR),Departures,TRA6145,2025-03-24 18:18:57,47064,Co,2025-03-24 14:32:41,80.80796506619579,Zwanenburgbaan36C_L,Boeing 737-800,Transavia
Mon 01:04:27 AM,25.7828,-75.3513,↗ 40°,546.0,628.0,"39,000",25,FlightAware ADS-B (MHH / MYAM),Arrivals,KLM760,2025-03-24 13:51:30,3867,Co,2025-03-24 12:35:12,82.57059967900375,Zwanenburgbaan36C_L,Boeing 787-9,KLM
Mon 01:04:28 AM,36.6513,143.2794,↗ 46°,539.0,620.0,"30,450","1,082",FlightAware ADS-B (SDJ / RJSS),Arrivals,KLM862,2025-03-24 19:18:23,3868,Co,2025-03-24 18:05:45,80.88888789846152,Zwanenburgbaan36C_L,Boeing 777-200,KLM
Mon 01:04:30 PM,47.4921,6.1544,↑ 360°,393.0,452.0,"33,150","1,200",FlightAware ADS-B,Arrivals,KLM1936,2025-03-24 19:18:23,47070,Co,2025-03-24 09:39:53,80.09091481043761,Zwanenburgbaan36C_L,Boeing 737-800,KLM
Mon 01:04:32 PM,52.4846,4.8366,→ 85°,264.0,304.0,"7,700","3,768",FlightAware ADS-B (WOE / EHWO),Departures,KLM1823,2025-03-24 18:18:57,47072,Da,2025-03-24 14:45:43,77.95329219067148,Aalsmeerbaan36R_L,Embraer ERJ 170-200 STD,KLM
Mon 01:04:36 PM,53.7248,6.8415,↗ 43°,406.0,467.0,"37,075",775,FlightAware ADS-B (FCN / ETMN),Departures,KLM1225,2025-03-24 18:18:57,47076,Co,2025-03-24 20:57:38,80.72031320050314,Zwanenburgbaan36C_L,Boeing 737-800,KLM
Mon 01:04:38 PM,52.4248,6.0331,← 287°,331.0,381.0,"16,525","-1,588",FlightAware ADS-B (GRQ / EHGG),Arrivals,DLH998,2025-03-24 18:38:40,47078,Co,2025-03-24 17:21:27,65.24489170601552,Aalsmeerbaan36R_L,Airbus A320 214,Delta Air Lines
Mon 01:04:49 PM,47.5256,6.1539,↑ 0°,394.0,453.0,"33,475","1,038",FlightAware ADS-B (LSTB),Arrivals,KLM1936,2025-03-24 19:18:23,47089,Co,2025-03-24 09:39:53,80.09091481043761,Zwanenburgbaan36C_L,Boeing 737-800,KLM
Mon 01:04:52 PM,50.793,4.6309,↖ 332°,410.0,472.0,"27,375","-1,925",FlightAware ADS-B (CRL / EBCI),Arrivals,KLM596,2025-03-24 18:38:40,47092,Ku,2025-03-24 17:26:41,71.32310002002386,Aalsmeerbaan36R_L,Boeing 787-9,KLM
Mon 01:04:54 PM,52.4855,4.8799,→ 91°,270.0,311.0,"8,925","3,346",FlightAware ADS-B (EHDB),Departures,KLM1823,2025-03-24 18:18:57,47094,Da,2025-03-24 14:45:43,77.95329219067148,Aalsmeerbaan36R_L,Embraer ERJ 170-200 STD,KLM
Mon 01:04:56 PM,51.0478,4.1081,↙ 203°,508.0,585.0,"30,175","1,107",FlightAware ADS-B (EGSQ),Departures,TRA6145,2025-03-24 18:18:57,47096,Co,2025-03-24 14:32:41,80.80796506619579,Zwanenburgbaan36C_L,Boeing 737-800,Transavia
Mon 01:04:58 AM,25.8406,-75.2976,↗ 40°,548.0,631.0,"39,000",-25,FlightAware ADS-B (MHH / MYAM),Arrivals,KLM760,2025-03-24 13:51:30,3898,Co,2025-03-24 12:35:12,82.57059967900375,Zwanenburgbaan36C_L,Boeing 787-9,KLM
Mon 01:04:59 AM,36.7034,143.3466,↗ 46°,538.0,619.0,"30,950",984,FlightAware ADS-B (SDJ / RJSS),Arrivals,KLM862,2025-03-24 19:18:23,3899,Co,2025-03-24 18:05:45,80.88888789846152,Zwanenburgbaan36C_L,Boeing 777-200,KLM
Mon 01:05:03 PM,60.9641,8.3918,↓ 200°,463.0,533.0,"37,925",221,FlightAware ADS-B (SVG / ENZV),Arrivals,KLM1154,2025-03-24 19:37:57,47103,Co,2025-03-24 18:26:11,78.70960615852167,Zwanenburgbaan36C_L,Embraer ERJ 190-100 STD,KLM
Mon 01:05:06 PM,53.7673,6.9083,↗ 43°,408.0,470.0,"37,475",725,FlightAware ADS-B (BRE / EDDW),Departures,KLM1225,2025-03-24 18:18:57,47106,Co,2025-03-24 20:57:38,80.72031320050314,Zwanenburgbaan36C_L,Boeing 737-800,KLM
Mon 01:05:08 PM,52.4377,5.9641,← 287°,322.0,371.0,"15,850","-1,722",FlightAware ADS-B (EHHV),Arrivals,DLH998,2025-03-24 18:38:40,47108,Co,2025-03-24 17:21:27,65.24489170601552,Aalsmeerbaan36R_L,Airbus A320 214,Delta Air Lines
Mon 01:05:11 PM,52.4799,4.917,↘ 113°,279.0,321.0,"9,875","2,912",FlightAware ADS-B (EHSE),Departures,KLM1823,2025-03-24 18:18:57,47111,Da,2025-03-24 14:45:43,77.95329219067148,Aalsmeerbaan36R_L,Embraer ERJ 170-200 STD,KLM
Mon 01:05:22 PM,50.843,4.5886,↖ 332°,403.0,464.0,"26,400","-1,979",FlightAware ADS-B (EBDT),Arrivals,KLM596,2025-03-24 18:38:40,47122,Ku,2025-03-24 17:26:41,71.32310002002386,Aalsmeerbaan36R_L,Boeing 787-9,KLM
Mon 01:05:23 PM,59.9631,5.3186,↓ 172°,367.0,422.0,"11,200","1,911",FlightAware ADS-B (ENSX),Arrivals,KLM1170,2025-03-24 19:37:57,47123,Co,2025-03-24 18:18:43,79.88883691281315,Zwanenburgbaan36C_L,Boeing 737-800,KLM
Mon 01:05:24 PM,50.8614,5.5861,↓ 163°,438.0,504.0,"34,875",600,FlightAware ADS-B (GLZ / EHGR),Departures,KLM1937,2025-03-24 18:18:57,47124,Co,2025-03-24 09:39:53,80.09091481043761,Zwanenburgbaan36C_L,Boeing 737-800,KLM
Mon 01:05:25 PM,50.985,4.0666,↙ 203°,512.0,589.0,"30,725","1,350",FlightAware ADS-B (ANR / EBAW),Departures,TRA6145,2025-03-24 18:18:57,47125,Co,2025-03-24 14:32:41,80.80796506619579,Zwanenburgbaan36C_L,Boeing 737-800,Transavia
Mon 01:05:28 AM,25.9004,-75.2421,↗ 40°,547.0,629.0,"38,975",-25,FlightAware ADS-B (MHH / MYAM),Arrivals,KLM760,2025-03-24 13:51:30,3928,Co,2025-03-24 12:35:12,82.57059967900375,Zwanenburgbaan36C_L,Boeing 787-9,KLM
Mon 01:05:28 PM,52.4659,4.9415,↘ 143°,291.0,335.0,"10,575","2,868",FlightAware ADS-B (LEY / EHLE),Departures,KLM1823,2025-03-24 18:18:57,47128,Da,2025-03-24 14:45:43,77.95329219067148,Aalsmeerbaan36R_L,Embraer ERJ 170-200 STD,KLM
Mon 01:05:29 AM,36.7567,143.4152,↗ 46°,535.0,616.0,"31,450",925,FlightAware ADS-B (SDJ / RJSS),Arrivals,KLM862,2025-03-24 19:18:23,3929,Co,2025-03-24 18:05:45,80.88888789846152,Zwanenburgbaan36C_L,Boeing 777-200,KLM
Mon 01:05:32 PM,52.4481,5.9088,← 287°,312.0,359.0,"14,975","-2,310",FlightAware ADS-B (EHVB),Arrivals,DLH998,2025-03-24 18:38:40,47132,Co,2025-03-24 17:21:27,65.24489170601552,Aalsmeerbaan36R_L,Airbus A320 214,Delta Air Lines
Mon 01:05:36 PM,53.8073,6.9729,↗ 44°,410.0,472.0,"37,800",725,FlightAware ADS-B (MGL / EDLN),Departures,KLM1225,2025-03-24 18:18:57,47136,Co,2025-03-24 20:57:38,80.72031320050314,Zwanenburgbaan36C_L,Boeing 737-800,KLM
Mon 01:05:38 PM,58.6993,16.1655,↙ 225°,472.0,543.0,"31,300","1,200",FlightAware ADS-B (LPI / ESSL),Arrivals,KLM1224,2025-03-24 19:37:57,47138,Co,2025-03-24 20:57:38,80.72031320050314,Zwanenburgbaan36C_L,Boeing 737-800,KLM
Mon 01:05:39 PM,50.8704,4.5644,↖ 328°,405.0,466.0,"25,825","-1,955",FlightAware ADS-B (DUS / EDDL),Arrivals,KLM596,2025-03-24 18:38:40,47139,Ku,2025-03-24 17:26:41,71.32310002002386,Aalsmeerbaan36R_L,Boeing 787-9,KLM
Mon 01:05:40 PM,60.8923,8.3375,↓ 200°,465.0,535.0,"38,000",67,FlightAware ADS-B (OSL / ENGM),Arrivals,KLM1154,2025-03-24 19:37:57,47140,Co,2025-03-24 18:26:11,78.70960615852167,Zwanenburgbaan36C_L,Embraer ERJ 190-100 STD,KLM
Mon 01:05:44 PM,47.6294,6.1516,↑ 0°,399.0,459.0,"34,425",988,FlightAware ADS-B (GVA / LSGG),Arrivals,KLM1936,2025-03-24 19:18:23,47144,Co,2025-03-24 09:39:53,80.09091481043761,Zwanenburgbaan36C_L,Boeing 737-800,KLM
Mon 01:05:45 PM,52.4479,4.9647,↘ 139°,289.0,333.0,"11,500","2,756",FlightAware ADS-B (EHTL),Departures,KLM1823,2025-03-24 18:18:57,47145,Da,2025-03-24 14:45:43,77.95329219067148,Aalsmeerbaan36R_L,Embraer ERJ 170-200 STD,KLM
Mon 01:05:46 PM,50.9389,4.036,↙ 203°,510.0,587.0,"31,300","1,530",FlightAware ADS-B (RTM / EHRD),Departures,TRA6145,2025-03-24 18:18:57,47146,Co,2025-03-24 14:32:41,80.80796506619579,Zwanenburgbaan36C_L,Boeing 737-800,Transavia
Mon 01:05:54 PM,50.8012,5.6146,↓ 163°,440.0,506.0,"35,000",125,FlightAware ADS-B (EBBN),Departures,KLM1937,2025-03-24 18:18:57,47154,Co,2025-03-24 09:39:53,80.09091481043761,Zwanenburgbaan36C_L,Boeing 737-800,KLM
Mon 01:05:55 PM,50.8951,4.5345,↖ 319°,411.0,473.0,"25,325","-1,756",FlightAware ADS-B (AMS / EHAM),Arrivals,KLM596,2025-03-24 18:38:40,47155,Ku,2025-03-24 17:26:41,71.32310002002386,Aalsmeerbaan36R_L,Boeing 787-9,KLM
Mon 01:05:58 PM,52.4593,5.8494,← 287°,304.0,350.0,"13,925","-2,330",FlightAware ADS-B (GRQ / EHGG),Arrivals,DLH998,2025-03-24 18:38:40,47158,Co,2025-03-24 17:21:27,65.24489170601552,Aalsmeerbaan36R_L,Airbus A320 214,Delta Air Lines
Mon 01:05:59 AM,25.9592,-75.1876,↗ 40°,547.0,629.0,"38,975",24,FlightAware ADS-B (LGI / MYLD),Arrivals,KLM760,2025-03-24 13:51:30,3959,Co,2025-03-24 12:35:12,82.57059967900375,Zwanenburgbaan36C_L,Boeing 787-9,KLM
Mon 01:06:03 PM,47.6631,6.1513,↑ 359°,400.0,460.0,"34,725",689,FlightAware ADS-B,Arrivals,KLM1936,2025-03-24 19:18:23,47163,Co,2025-03-24 09:39:53,80.09091481043761,Zwanenburgbaan36C_L,Boeing 737-800,KLM
Mon 01:06:06 PM,53.8483,7.0411,↗ 45°,410.0,472.0,"38,200",900,FlightAware ADS-B (EHDB),Departures,KLM1225,2025-03-24 18:18:57,47166,Co,2025-03-24 20:57:38,80.72031320050314,Zwanenburgbaan36C_L,Boeing 737-800,KLM
Mon 01:06:08 PM,58.653,16.077,↙ 225°,478.0,550.0,"31,900","1,200",FlightAware ADS-B (ESVA),Arrivals,KLM1224,2025-03-24 19:37:57,47168,Co,2025-03-24 20:57:38,80.72031320050314,Zwanenburgbaan36C_L,Boeing 737-800,KLM
Mon 01:06:09 PM,49.4202,2.1662,↗ 23°,392.0,451.0,"36,000",-25,FlightAware ADS-B (EBCF),Arrivals,IBS1793,2025-03-24 18:58:16,47169,Da,2025-03-24 17:42:28,67.29988761941017,Zwanenburgbaan36C_L,Airbus A320 214,Iberia
Mon 01:06:11 PM,52.4238,5.0067,↘ 130°,297.0,342.0,"12,550","1,869",FlightAware ADS-B (AMS / EHAM),Departures,KLM1823,2025-03-24 18:18:57,47171,Da,2025-03-24 14:45:43,77.95329219067148,Aalsmeerbaan36R_L,Embraer ERJ 170-200 STD,KLM
Mon 01:06:15 PM,50.8767,3.9949,↙ 203°,506.0,582.0,"32,000","1,449",FlightAware ADS-B (BRU / EBBR),Departures,TRA6145,2025-03-24 18:18:57,47175,Co,2025-03-24 14:32:41,80.80796506619579,Zwanenburgbaan36C_L,Boeing 737-800,Transavia
Mon 01:06:16 PM,49.0638,11.3102,↑ 339°,438.0,504.0,"26,850","2,975",FlightAware ADS-B (MUC / EDDM),Arrivals,KLM1856,2025-03-24 19:18:23,47176,Da,2025-03-24 10:30:35,75.06570672205123,Aalsmeerbaan36R_L,Embraer ERJ190-100STD,KLM
Mon 01:06:19 PM,52.4674,5.8057,← 287°,299.0,344.0,"13,150","-2,529",FlightAware ADS-B (LEY / EHLE),Arrivals,DLH998,2025-03-24 18:38:40,47179,Co,2025-03-24 17:21:27,65.24489170601552,Aalsmeerbaan36R_L,Airbus A320 214,Delta Air Lines
Mon 01:06:20 PM,50.9268,4.4773,← 308°,413.0,475.0,"24,625","-2,153",FlightAware ADS-B (BRU / EBBR),Arrivals,KLM596,2025-03-24 18:38:40,47180,Ku,2025-03-24 17:26:41,71.32310002002386,Aalsmeerbaan36R_L,Boeing 787-9,KLM
Mon 01:06:24 PM,59.8557,5.3494,↓ 172°,395.0,455.0,"13,525","2,175",FlightAware ADS-B (SVG / ENZV),Arrivals,KLM1170,2025-03-24 19:37:57,47184,Co,2025-03-24 18:18:43,79.88883691281315,Zwanenburgbaan36C_L,Boeing 737-800,KLM
Mon 01:06:30 AM,26.0175,-75.1332,↗ 40°,547.0,629.0,"39,000",24,FlightAware ADS-B (LGI / MYLD),Arrivals,KLM760,2025-03-24 13:51:30,3990,Co,2025-03-24 12:35:12,82.57059967900375,Zwanenburgbaan36C_L,Boeing 787-9,KLM
Mon 01:06:36 PM,53.8898,7.1115,↗ 45°,406.0,467.0,"38,700",775,FlightAware ADS-B (LEY / EHLE),Departures,KLM1225,2025-03-24 18:18:57,47196,Co,2025-03-24 20:57:38,80.72031320050314,Zwanenburgbaan36C_L,Boeing 737-800,KLM
Mon 01:06:38 PM,58.6052,15.9858,↙ 225°,482.0,555.0,"32,500","1,460",FlightAware ADS-B (ESSE),Arrivals,KLM1224,2025-03-24 19:37:57,47198,Co,2025-03-24 20:57:38,80.72031320050314,Zwanenburgbaan36C_L,Boeing 737-800,KLM
Mon 01:06:39 PM,49.4696,2.1987,↗ 23°,394.0,453.0,"35,975",25,FlightAware ADS-B (CDG / LFPG),Arrivals,IBS1793,2025-03-24 18:58:16,47199,Da,2025-03-24 17:42:28,67.29988761941017,Zwanenburgbaan36C_L,Airbus A320 214,Iberia
Mon 01:06:45 PM,50.8118,3.952,↙ 203°,503.0,579.0,"32,725",813,FlightAware ADS-B (MGL / EDLN),Departures,TRA6145,2025-03-24 18:18:57,47205,Co,2025-03-24 14:32:41,80.80796506619579,Zwanenburgbaan36C_L,Boeing 737-800,Transavia
Mon 01:06:46 PM,49.1197,11.2772,↑ 339°,430.0,495.0,"28,425","2,800",FlightAware ADS-B (EDPD),Arrivals,KLM1856,2025-03-24 19:18:23,47206,Da,2025-03-24 10:30:35,75.06570672205123,Aalsmeerbaan36R_L,Embraer ERJ190-100STD,KLM
Mon 01:06:49 PM,52.4793,5.7418,← 287°,296.0,341.0,"11,775","-2,382",FlightAware ADS-B (EHTL),Arrivals,DLH998,2025-03-24 18:38:40,47209,Co,2025-03-24 17:21:27,65.24489170601552,Aalsmeerbaan36R_L,Airbus A320 214,Delta Air Lines
Mon 01:06:50 PM,52.3879,5.0766,↘ 130°,333.0,383.0,"13,525","1,978",FlightAware ADS-B (EHVB),Departures,KLM1823,2025-03-24 18:18:57,47210,Da,2025-03-24 14:45:43,77.95329219067148,Aalsmeerbaan36R_L,Embraer ERJ 170-200 STD,KLM
Mon 01:06:54 PM,59.8019,5.3632,↓ 173°,406.0,467.0,"14,625","2,322",FlightAware ADS-B (HAU / ENHD),Arrivals,KLM1170,2025-03-24 19:37:57,47214,Co,2025-03-24 18:18:43,79.88883691281315,Zwanenburgbaan36C_L,Boeing 737-800,KLM
Mon 01:07:01 AM,26.082,-75.0731,↗ 40°,548.0,631.0,"39,000",-25,FlightAware ADS-B (TBI / MYCB),Arrivals,KLM760,2025-03-24 13:51:30,4021,Co,2025-03-24 12:35:12,82.57059967900375,Zwanenburgbaan36C_L,Boeing 787-9,KLM
Mon 01:07:06 PM,53.9289,7.1795,↗ 46°,405.0,466.0,"38,975",300,FlightAware ADS-B (GRQ / EHGG),Departures,KLM1225,2025-03-24 18:18:57,47226,Co,2025-03-24 20:57:38,80.72031320050314,Zwanenburgbaan36C_L,Boeing 737-800,KLM
Mon 01:07:09 PM,49.5199,2.2318,↗ 23°,394.0,453.0,"36,025",50,FlightAware ADS-B (EGBT),Arrivals,IBS1793,2025-03-24 18:58:16,47229,Da,2025-03-24 17:42:28,67.29988761941017,Zwanenburgbaan36C_L,Airbus A320 214,Iberia
Mon 01:07:10 PM,52.4874,5.6981,← 288°,293.0,337.0,"11,125","-1,706",FlightAware ADS-B (EHDB),Arrivals,DLH998,2025-03-24 18:38:40,47230,Co,2025-03-24 17:21:27,65.24489170601552,Aalsmeerbaan36R_L,Airbus A320 214,Delta Air Lines
Mon 01:07:16 PM,49.1765,11.2437,↑ 339°,432.0,497.0,"29,650","2,353",FlightAware ADS-B (MUC / EDDM),Arrivals,KLM1856,2025-03-24 19:18:23,47236,Da,2025-03-24 10:30:35,75.06570672205123,Aalsmeerbaan36R_L,Embraer ERJ190-100STD,KLM
Mon 01:07:20 PM,52.3584,5.1334,↘ 130°,338.0,389.0,"14,825","2,525",FlightAware ADS-B (RTM / EHRD),Departures,KLM1823,2025-03-24 18:18:57,47240,Da,2025-03-24 14:45:43,77.95329219067148,Aalsmeerbaan36R_L,Embraer ERJ 170-200 STD,KLM
Mon 01:07:23 PM,58.535,15.8527,↙ 225°,478.0,550.0,"33,725","1,500",FlightAware ADS-B (ESVK),Arrivals,KLM1224,2025-03-24 19:37:57,47243,Co,2025-03-24 20:57:38,80.72031320050314,Zwanenburgbaan36C_L,Boeing 737-800,KLM
Mon 01:07:27 PM,50.7203,3.8921,↙ 203°,496.0,571.0,"32,975",208,FlightAware ADS-B (MGL / EDLN),Departures,TRA6145,2025-03-24 18:18:57,47247,Co,2025-03-24 14:32:41,80.80796506619579,Zwanenburgbaan36C_L,Boeing 737-800,Transavia
Mon 01:07:28 PM,47.8239,6.1489,↑ 360°,418.0,481.0,"35,550",762,FlightAware ADS-B (EBU / LFMH),Arrivals,KLM1936,2025-03-24 19:18:23,47248,Co,2025-03-24 09:39:53,80.09091481043761,Zwanenburgbaan36C_L,Boeing 737-800,KLM
Mon 01:07:36 PM,53.9661,7.2448,↗ 46°,405.0,466.0,"39,000",25,FlightAware ADS-B (EHHO),Departures,KLM1225,2025-03-24 18:18:57,47256,Co,2025-03-24 20:57:38,80.72031320050314,Zwanenburgbaan36C_L,Boeing 737-800,KLM
Mon 01:07:37 PM,49.2148,11.2212,↑ 339°,433.0,498.0,"30,425","2,195",FlightAware ADS-B (EDTF),Arrivals,KLM1856,2025-03-24 19:18:23,47257,Da,2025-03-24 10:30:35,75.06570672205123,Aalsmeerbaan36R_L,Embraer ERJ190-100STD,KLM
Mon 01:07:39 PM,49.5692,2.2642,↗ 23°,394.0,453.0,"36,025",25,FlightAware ADS-B (ORY / LFPO),Arrivals,IBS1793,2025-03-24 18:58:16,47259,Da,2025-03-24 17:42:28,67.29988761941017,Zwanenburgbaan36C_L,Airbus A320 214,Iberia
Mon 01:07:40 PM,52.4988,5.6358,← 287°,290.0,334.0,"10,325","-1,564",FlightAware ADS-B (EHTE),Arrivals,DLH998,2025-03-24 18:38:40,47260,Co,2025-03-24 17:21:27,65.24489170601552,Aalsmeerbaan36R_L,Airbus A320 214,Delta Air Lines
Mon 01:07:48 PM,47.8602,6.1485,↑ 360°,417.0,480.0,"35,925",675,FlightAware ADS-B (LSTB),Arrivals,KLM1936,2025-03-24 19:18:23,47268,Co,2025-03-24 09:39:53,80.09091481043761,Zwanenburgbaan36C_L,Boeing 737-800,KLM
Mon 01:07:50 PM,52.3271,5.1936,↘ 130°,346.0,398.0,"16,050","2,550",FlightAware ADS-B (EHTE),Departures,KLM1823,2025-03-24 18:18:57,47270,Da,2025-03-24 14:45:43,77.95329219067148,Aalsmeerbaan36R_L,Embraer ERJ 170-200 STD,KLM
Mon 01:07:57 PM,50.6585,3.852,↙ 203°,500.0,575.0,"32,975",21,FlightAware ADS-B (MST / EHBK),Departures,TRA6145,2025-03-24 18:18:57,47277,Co,2025-03-24 14:32:41,80.80796506619579,Zwanenburgbaan36C_L,Boeing 737-800,Transavia
Mon 01:08:08 PM,47.9018,6.1486,↑ 0°,424.0,488.0,"36,000",365,FlightAware ADS-B (STR / EDDS),Arrivals,KLM1936,2025-03-24 19:18:23,47288,Co,2025-03-24 09:39:53,80.09091481043761,Zwanenburgbaan36C_L,Boeing 737-800,KLM
Mon 01:08:14 PM,52.5051,5.5605,← 258°,289.0,333.0,"9,450","-1,543",FlightAware ADS-B (LEY / EHLE),Arrivals,DLH998,2025-03-24 18:38:40,47294,Co,2025-03-24 17:21:27,65.24489170601552,Aalsmeerbaan36R_L,Airbus A320 214,Delta Air Lines
Mon 01:08:18 PM,49.2926,11.1769,↑ 340°,436.0,502.0,"31,875","1,882",FlightAware ADS-B (EDGL),Arrivals,KLM1856,2025-03-24 19:18:23,47298,Da,2025-03-24 10:30:35,75.06570672205123,Aalsmeerbaan36R_L,Embraer ERJ190-100STD,KLM
Mon 01:08:20 PM,52.2954,5.2543,↘ 130°,347.0,399.0,"17,375","2,360",FlightAware ADS-B (EBUL),Departures,KLM1823,2025-03-24 18:18:57,47300,Da,2025-03-24 14:45:43,77.95329219067148,Aalsmeerbaan36R_L,Embraer ERJ 170-200 STD,KLM
Mon 01:08:22 PM,51.9379,7.9495,← 295°,476.0,548.0,"36,000",-281,FlightAware ADS-B (EIN / EHEH),Arrivals,KLM844,2025-03-24 18:58:16,47302,Co,2025-03-24 17:34:00,68.17734625488245,Aalsmeerbaan36R_L,Boeing 777-300ER,KLM
Mon 01:08:32 PM,52.4948,5.5256,↙ 239°,289.0,333.0,"9,000","-1,636",FlightAware ADS-B (EIN / EHEH),Arrivals,DLH998,2025-03-24 18:38:40,47312,Co,2025-03-24 17:21:27,65.24489170601552,Aalsmeerbaan36R_L,Airbus A320 214,Delta Air Lines
Mon 01:08:39 PM,51.0914,4.1553,← 309°,401.0,461.0,"20,275","-1,085",FlightAware ADS-B (CGN / EDDK),Arrivals,KLM596,2025-03-24 18:38:40,47319,Ku,2025-03-24 17:26:41,71.32310002002386,Aalsmeerbaan36R_L,Boeing 787-9,KLM
Mon 01:08:40 PM,50.5671,3.7925,↙ 203°,502.0,578.0,"33,000",19,FlightAware ADS-B (BRU / EBBR),Departures,TRA6145,2025-03-24 18:18:57,47320,Co,2025-03-24 14:32:41,80.80796506619579,Zwanenburgbaan36C_L,Boeing 737-800,Transavia
Mon 01:08:42 PM,58.4106,15.6183,↙ 225°,481.0,554.0,"35,375","1,110",FlightAware ADS-B (ESCF),Arrivals,KLM1224,2025-03-24 19:37:57,47322,Co,2025-03-24 20:57:38,80.72031320050314,Zwanenburgbaan36C_L,Boeing 737-800,KLM
Mon 01:08:45 PM,47.9743,6.1489,↑ 0°,429.0,494.0,"36,350",625,FlightAware ADS-B (RMS / ETAR),Arrivals,KLM1936,2025-03-24 19:18:23,47325,Co,2025-03-24 09:39:53,80.09091481043761,Zwanenburgbaan36C_L,Boeing 737-800,KLM
Mon 01:08:48 PM,49.3489,11.1453,↑ 340°,440.0,506.0,"32,750","1,400",FlightAware ADS-B (NUE / EDDN),Arrivals,KLM1856,2025-03-24 19:18:23,47328,Da,2025-03-24 10:30:35,75.06570672205123,Aalsmeerbaan36R_L,Embraer ERJ190-100STD,KLM
Mon 01:08:56 PM,59.5641,5.4086,↓ 175°,434.0,499.0,"19,200","2,250",FlightAware ADS-B (BGO / ENBR),Arrivals,KLM1170,2025-03-24 19:37:57,47336,Co,2025-03-24 18:18:43,79.88883691281315,Zwanenburgbaan36C_L,Boeing 737-800,KLM
Mon 01:08:58 PM,52.4772,5.4779,↙ 239°,289.0,333.0,"8,250","-1,615",FlightAware ADS-B (UTC / EHSB),Arrivals,DLH998,2025-03-24 18:38:40,47338,Co,2025-03-24 17:21:27,65.24489170601552,Aalsmeerbaan36R_L,Airbus A320 214,Delta Air Lines
Mon 01:09:01 AM,26.3142,-74.8558,↗ 40°,549.0,632.0,"39,000",24,FlightAware ADS-B (TBI / MYCB),Arrivals,KLM760,2025-03-24 13:51:30,4141,Co,2025-03-24 12:35:12,82.57059967900375,Zwanenburgbaan36C_L,Boeing 787-9,KLM
Mon 01:09:01 PM,48.0057,6.149,↑ 0°,430.0,495.0,"36,525",900,FlightAware ADS-B (EAP / LFSB),Arrivals,KLM1936,2025-03-24 19:18:23,47341,Co,2025-03-24 09:39:53,80.09091481043761,Zwanenburgbaan36C_L,Boeing 737-800,KLM
Mon 01:09:02 PM,51.1177,4.1034,← 311°,396.0,456.0,"19,975",-563,FlightAware ADS-B (EBBL),Arrivals,KLM596,2025-03-24 18:38:40,47342,Ku,2025-03-24 17:26:41,71.32310002002386,Aalsmeerbaan36R_L,Boeing 787-9,KLM
Mon 01:09:05 PM,52.2484,5.3444,↘ 131°,358.0,412.0,"19,000","2,207",FlightAware ADS-B (EHHO),Departures,KLM1823,2025-03-24 18:18:57,47345,Da,2025-03-24 14:45:43,77.95329219067148,Aalsmeerbaan36R_L,Embraer ERJ 170-200 STD,KLM
Mon 01:09:09 PM,49.7191,2.3624,↗ 23°,386.0,444.0,"36,000",-25,FlightAware ADS-B (EBCF),Arrivals,IBS1793,2025-03-24 18:58:16,47349,Da,2025-03-24 17:42:28,67.29988761941017,Zwanenburgbaan36C_L,Airbus A320 214,Iberia
Mon 01:09:12 PM,58.3646,15.5322,↙ 224°,482.0,555.0,"35,875",595,FlightAware ADS-B (ESMY),Arrivals,KLM1224,2025-03-24 19:37:57,47352,Co,2025-03-24 20:57:38,80.72031320050314,Zwanenburgbaan36C_L,Boeing 737-800,KLM
Mon 01:09:18 PM,50.484,3.7382,↙ 203°,502.0,578.0,"33,000",-22,FlightAware ADS-B (UDE / EHVK),Departures,TRA6145,2025-03-24 18:18:57,47358,Co,2025-03-24 14:32:41,80.80796506619579,Zwanenburgbaan36C_L,Boeing 737-800,Transavia
Mon 01:09:19 PM,51.1405,4.0721,↖ 328°,382.0,440.0,"19,900","-1,114",FlightAware ADS-B (EBNM),Arrivals,KLM596,2025-03-24 18:38:40,47359,Ku,2025-03-24 17:26:41,71.32310002002386,Aalsmeerbaan36R_L,Boeing 787-9,KLM
Mon 01:09:20 PM,48.0452,6.1459,↑ 351°,430.0,495.0,"36,875",863,FlightAware ADS-B (ETOU),Arrivals,KLM1936,2025-03-24 19:18:23,47360,Co,2025-03-24 09:39:53,80.09091481043761,Zwanenburgbaan36C_L,Boeing 737-800,KLM
Mon 01:09:24 PM,52.4588,5.4277,↙ 239°,283.0,326.0,"7,600","-1,420",FlightAware ADS-B (AMS / EHAM),Arrivals,DLH998,2025-03-24 18:38:40,47364,Co,2025-03-24 17:21:27,65.24489170601552,Aalsmeerbaan36R_L,Airbus A320 214,Delta Air Lines
Mon 01:09:30 PM,52.221,5.3965,↘ 131°,362.0,417.0,"19,950","2,264",FlightAware ADS-B (UTC / EHSB),Departures,KLM1823,2025-03-24 18:18:57,47370,Da,2025-03-24 14:45:43,77.95329219067148,Aalsmeerbaan36R_L,Embraer ERJ 170-200 STD,KLM
Mon 01:09:36 PM,59.4853,5.4007,↓ 187°,430.0,495.0,"20,675","2,113",FlightAware ADS-B (SRP / ENSO),Arrivals,KLM1170,2025-03-24 19:37:57,47376,Co,2025-03-24 18:18:43,79.88883691281315,Zwanenburgbaan36C_L,Boeing 737-800,KLM
Mon 01:09:37 PM,51.1701,4.0542,↑ 349°,367.0,422.0,"19,325","-2,347",FlightAware ADS-B (BRU / EBBR),Arrivals,KLM596,2025-03-24 18:38:40,47377,Ku,2025-03-24 17:26:41,71.32310002002386,Aalsmeerbaan36R_L,Boeing 787-9,KLM
Mon 01:09:39 PM,49.7686,2.3953,↗ 24°,378.0,435.0,"36,000",-325,FlightAware ADS-B (LFFE),Arrivals,IBS1793,2025-03-24 18:58:16,47379,Da,2025-03-24 17:42:28,67.29988761941017,Zwanenburgbaan36C_L,Airbus A320 214,Iberia
Mon 01:09:41 PM,48.0854,6.13,↑ 342°,435.0,501.0,"37,100",724,FlightAware ADS-B (EAP / LFSB),Arrivals,KLM1936,2025-03-24 19:18:23,47381,Co,2025-03-24 09:39:53,80.09091481043761,Zwanenburgbaan36C_L,Boeing 737-800,KLM
Mon 01:09:45 PM,58.3109,15.4321,↙ 224°,484.0,557.0,"36,000",117,FlightAware ADS-B (RYG / ENRY),Arrivals,KLM1224,2025-03-24 19:37:57,47385,Co,2025-03-24 20:57:38,80.72031320050314,Zwanenburgbaan36C_L,Boeing 737-800,KLM
Mon 01:09:48 PM,49.4628,11.0806,↑ 340°,439.0,505.0,"33,725","1,019",FlightAware ADS-B (LKPS),Arrivals,KLM1856,2025-03-24 19:18:23,47388,Da,2025-03-24 10:30:35,75.06570672205123,Aalsmeerbaan36R_L,Embraer ERJ190-100STD,KLM
Mon 01:09:54 PM,52.4389,5.3736,↙ 239°,274.0,315.0,"6,925","-1,475",FlightAware ADS-B (EHTL),Arrivals,DLH998,2025-03-24 18:38:40,47394,Co,2025-03-24 17:21:27,65.24489170601552,Aalsmeerbaan36R_L,Airbus A320 214,Delta Air Lines
Mon 01:10:00 PM,52.1884,5.4586,↘ 131°,365.0,420.0,"21,075","2,050",FlightAware ADS-B (DHR / EHKD),Departures,KLM1823,2025-03-24 18:18:57,47400,Da,2025-03-24 14:45:43,77.95329219067148,Aalsmeerbaan36R_L,Embraer ERJ 170-200 STD,KLM
Mon 01:10:05 PM,52.0359,7.6106,← 296°,509.0,586.0,"32,975","-1,821",FlightAware ADS-B (DUS / EDDL),Arrivals,KLM844,2025-03-24 18:58:16,47405,Co,2025-03-24 17:34:00,68.17734625488245,Aalsmeerbaan36R_L,Boeing 777-300ER,KLM
Mon 01:10:07 PM,59.4252,5.3866,↓ 187°,435.0,501.0,"21,700","1,844",FlightAware ADS-B (SVG / ENZV),Arrivals,KLM1170,2025-03-24 19:37:57,47407,Co,2025-03-24 18:18:43,79.88883691281315,Zwanenburgbaan36C_L,Boeing 737-800,KLM
Mon 01:10:09 PM,49.8141,2.4264,↗ 24°,368.0,423.0,"35,675",-725,FlightAware ADS-B (BRU / EBBR),Arrivals,IBS1793,2025-03-24 18:58:16,47409,Da,2025-03-24 17:42:28,67.29988761941017,Zwanenburgbaan36C_L,Airbus A320 214,Iberia
Mon 01:10:10 AM,26.448,-74.7302,↗ 40°,550.0,633.0,"39,000",-23,FlightAware ADS-B (MHH / MYAM),Arrivals,KLM760,2025-03-24 13:51:30,4210,Co,2025-03-24 12:35:12,82.57059967900375,Zwanenburgbaan36C_L,Boeing 787-9,KLM
Mon 01:10:11 PM,49.5093,11.0534,↖ 338°,446.0,513.0,"34,175","1,570",FlightAware ADS-B (LKVO),Arrivals,KLM1856,2025-03-24 19:18:23,47411,Da,2025-03-24 10:30:35,75.06570672205123,Aalsmeerbaan36R_L,Embraer ERJ190-100STD,KLM
Mon 01:10:18 PM,48.1545,6.0924,↑ 340°,436.0,502.0,"37,575",649,FlightAware ADS-B (LSZG),Arrivals,KLM1936,2025-03-24 19:18:23,47418,Co,2025-03-24 09:39:53,80.09091481043761,Zwanenburgbaan36C_L,Boeing 737-800,KLM
Mon 01:10:21 PM,51.2431,4.0585,↑ 4°,366.0,421.0,"17,475","-2,270",FlightAware ADS-B (MGL / EDLN),Arrivals,KLM596,2025-03-24 18:38:40,47421,Ku,2025-03-24 17:26:41,71.32310002002386,Aalsmeerbaan36R_L,Boeing 787-9,KLM
Mon 01:10:24 PM,52.4199,5.3218,↙ 239°,270.0,311.0,"6,125","-1,575",FlightAware ADS-B (AMS / EHAM),Arrivals,DLH998,2025-03-24 18:38:40,47424,Co,2025-03-24 17:21:27,65.24489170601552,Aalsmeerbaan36R_L,Airbus A320 214,Delta Air Lines
Mon 01:10:30 PM,52.1562,5.5197,↘ 131°,372.0,428.0,"22,000","1,898",FlightAware ADS-B (LEY / EHLE),Departures,KLM1823,2025-03-24 18:18:57,47430,Da,2025-03-24 14:45:43,77.95329219067148,Aalsmeerbaan36R_L,Embraer ERJ 170-200 STD,KLM
Mon 01:10:31 PM,49.5424,11.0282,↖ 331°,446.0,513.0,"34,850","1,776",FlightAware ADS-B (EDTY),Arrivals,KLM1856,2025-03-24 19:18:23,47431,Da,2025-03-24 10:30:35,75.06570672205123,Aalsmeerbaan36R_L,Embraer ERJ190-100STD,KLM
Mon 01:10:35 PM,52.0648,7.5091,← 295°,503.0,579.0,"31,925","-2,350",FlightAware ADS-B (EDWP),Arrivals,KLM844,2025-03-24 18:58:16,47435,Co,2025-03-24 17:34:00,68.17734625488245,Aalsmeerbaan36R_L,Boeing 777-300ER,KLM
Mon 01:10:37 PM,59.3651,5.3726,↓ 187°,442.0,509.0,"22,550","1,623",FlightAware ADS-B (SVG / ENZV),Arrivals,KLM1170,2025-03-24 19:37:57,47437,Co,2025-03-24 18:18:43,79.88883691281315,Zwanenburgbaan36C_L,Boeing 737-800,KLM
Mon 01:10:39 PM,49.8608,2.4585,↗ 24°,369.0,425.0,"35,275",-925,FlightAware ADS-B (EGBG),Arrivals,IBS1793,2025-03-24 18:58:16,47439,Da,2025-03-24 17:42:28,67.29988761941017,Zwanenburgbaan36C_L,Airbus A320 214,Iberia
Mon 01:10:45 PM,54.7873,4.0281,↓ 195°,468.0,539.0,"37,000",-300,FlightAware ADS-B (AMS / EHAM),Arrivals,KLM1158,2025-03-24 18:58:16,47445,Co,2025-03-24 18:26:11,78.70960615852167,Zwanenburgbaan36C_L,Embraer ERJ 190-100 STD,KLM
Mon 01:10:48 PM,48.212,6.0616,↑ 340°,438.0,504.0,"37,825",425,FlightAware ADS-B (ENC / LFSN),Arrivals,KLM1936,2025-03-24 19:18:23,47448,Co,2025-03-24 09:39:53,80.09091481043761,Zwanenburgbaan36C_L,Boeing 737-800,KLM
Mon 01:10:49 PM,52.1334,5.5629,↘ 131°,375.0,432.0,"22,625","1,886",FlightAware ADS-B (EHDB),Departures,KLM1823,2025-03-24 18:18:57,47449,Da,2025-03-24 14:45:43,77.95329219067148,Aalsmeerbaan36R_L,Embraer ERJ 170-200 STD,KLM
Mon 01:10:51 PM,51.2947,4.0641,↑ 4°,359.0,413.0,"16,525","-1,750",FlightAware ADS-B (EGSR),Arrivals,KLM596,2025-03-24 18:38:40,47451,Ku,2025-03-24 17:26:41,71.32310002002386,Aalsmeerbaan36R_L,Boeing 787-9,KLM
Mon 01:10:54 PM,52.4012,5.2717,↙ 238°,265.0,305.0,"5,350","-1,576",FlightAware ADS-B (LEY / EHLE),Arrivals,DLH998,2025-03-24 18:38:40,47454,Co,2025-03-24 17:21:27,65.24489170601552,Aalsmeerbaan36R_L,Airbus A320 214,Delta Air Lines
Mon 01:11:00 PM,49.5958,10.9787,↖ 329°,446.0,513.0,"35,625","1,195",FlightAware ADS-B (MUC / EDDM),Arrivals,KLM1856,2025-03-24 19:18:23,47460,Da,2025-03-24 10:30:35,75.06570672205123,Aalsmeerbaan36R_L,Embraer ERJ190-100STD,KLM
Mon 01:11:05 PM,52.1164,5.595,↘ 131°,377.0,434.0,"23,100","2,109",FlightAware ADS-B (RTM / EHRD),Departures,KLM1823,2025-03-24 18:18:57,47465,Da,2025-03-24 14:45:43,77.95329219067148,Aalsmeerbaan36R_L,Embraer ERJ 170-200 STD,KLM
Mon 01:11:08 PM,59.2984,5.3571,↓ 187°,452.0,520.0,"23,350","1,475",FlightAware ADS-B (BGO / ENBR),Arrivals,KLM1170,2025-03-24 19:37:57,47468,Co,2025-03-24 18:18:43,79.88883691281315,Zwanenburgbaan36C_L,Boeing 737-800,KLM
Mon 01:11:09 PM,49.9092,2.4916,↗ 23°,378.0,435.0,"34,750","-1,050",FlightAware ADS-B (LFFE),Arrivals,IBS1793,2025-03-24 18:58:16,47469,Da,2025-03-24 17:42:28,67.29988761941017,Zwanenburgbaan36C_L,Airbus A320 214,Iberia
Mon 01:11:10 AM,26.565,-74.6199,↗ 40°,552.0,635.0,"39,000",25,FlightAware ADS-B (MHH / MYAM),Arrivals,KLM760,2025-03-24 13:51:30,4270,Co,2025-03-24 12:35:12,82.57059967900375,Zwanenburgbaan36C_L,Boeing 787-9,KLM
Mon 01:11:15 PM,54.7257,4.0006,↓ 194°,470.0,541.0,"36,700",-800,FlightAware ADS-B (MSE / EGMH),Arrivals,KLM1158,2025-03-24 18:58:16,47475,Co,2025-03-24 18:26:11,78.70960615852167,Zwanenburgbaan36C_L,Embraer ERJ 190-100 STD,KLM
Mon 01:11:18 PM,50.2282,3.5737,↙ 202°,504.0,580.0,"33,000",25,FlightAware ADS-B (BRU / EBBR),Departures,TRA6145,2025-03-24 18:18:57,47478,Co,2025-03-24 14:32:41,80.80796506619579,Zwanenburgbaan36C_L,Boeing 737-800,Transavia
Mon 01:11:21 PM,52.0965,5.6327,↘ 131°,377.0,434.0,"23,750","2,380",FlightAware ADS-B (EBZH),Departures,KLM1823,2025-03-24 18:18:57,47481,Da,2025-03-24 14:45:43,77.95329219067148,Aalsmeerbaan36R_L,Embraer ERJ 170-200 STD,KLM
Mon 01:11:23 PM,52.3816,5.2192,↙ 239°,263.0,303.0,"4,575",-864,FlightAware ADS-B (AMS / EHAM),Arrivals,DLH998,2025-03-24 18:38:40,47483,Co,2025-03-24 17:21:27,65.24489170601552,Aalsmeerbaan36R_L,Airbus A320 214,Delta Air Lines
Mon 01:11:38 PM,49.9213,5.2185,↖ 336°,425.0,489.0,"36,000",-50,FlightAware ADS-B (LUX / ELLX),Arrivals,KLM1622,2025-03-24 18:58:16,47498,Co,2025-03-24 17:39:28,78.77510297872848,Zwanenburgbaan36C_L,Boeing 737-800,KLM
Mon 01:11:39 PM,49.9584,2.5231,↗ 22°,393.0,452.0,"34,225",-737,FlightAware ADS-B (LCY / EGLC),Arrivals,IBS1793,2025-03-24 18:58:16,47499,Da,2025-03-24 17:42:28,67.29988761941017,Zwanenburgbaan36C_L,Airbus A320 214,Iberia
Mon 01:11:40 AM,26.6241,-74.564,↗ 41°,553.0,636.0,"39,000",-23,FlightAware ADS-B (MHH / MYAM),Arrivals,KLM760,2025-03-24 13:51:30,4300,Co,2025-03-24 12:35:12,82.57059967900375,Zwanenburgbaan36C_L,Boeing 787-9,KLM
Mon 01:11:45 PM,54.6629,3.9728,↓ 195°,467.0,537.0,"36,200","-1,000",FlightAware ADS-B (MSE / EGMH),Arrivals,KLM1158,2025-03-24 18:58:16,47505,Co,2025-03-24 18:26:11,78.70960615852167,Zwanenburgbaan36C_L,Embraer ERJ 190-100 STD,KLM
Mon 01:11:51 PM,52.0642,5.6936,↘ 131°,371.0,427.0,"24,925","2,250",FlightAware ADS-B (EHDR),Departures,KLM1823,2025-03-24 18:18:57,47511,Da,2025-03-24 14:45:43,77.95329219067148,Aalsmeerbaan36R_L,Embraer ERJ 170-200 STD,KLM
Mon 01:11:53 PM,52.3629,5.1688,↙ 239°,269.0,310.0,"4,500",-75,FlightAware ADS-B (EHHA),Arrivals,DLH998,2025-03-24 18:38:40,47513,Co,2025-03-24 17:21:27,65.24489170601552,Aalsmeerbaan36R_L,Airbus A320 214,Delta Air Lines
Mon 01:12:00 PM,49.7016,10.8787,↖ 328°,451.0,519.0,"36,000",-20,FlightAware ADS-B (OBF / EDMO),Arrivals,KLM1856,2025-03-24 19:18:23,47520,Da,2025-03-24 10:30:35,75.06570672205123,Aalsmeerbaan36R_L,Embraer ERJ190-100STD,KLM
Mon 01:12:01 PM,52.1454,7.2251,← 295°,453.0,521.0,"28,600","-2,631",FlightAware ADS-B (DUS / EDDL),Arrivals,KLM844,2025-03-24 18:58:16,47521,Co,2025-03-24 17:34:00,68.17734625488245,Aalsmeerbaan36R_L,Boeing 777-300ER,KLM
Mon 01:12:08 PM,49.9758,5.1814,↖ 336°,424.0,488.0,"35,950",-825,FlightAware ADS-B (RCS / EGTO),Arrivals,KLM1622,2025-03-24 18:58:16,47528,Co,2025-03-24 17:39:28,78.77510297872848,Zwanenburgbaan36C_L,Boeing 737-800,KLM
Mon 01:12:09 PM,59.1726,5.3283,↓ 187°,467.0,537.0,"24,725","1,377",FlightAware ADS-B (SVG / ENZV),Arrivals,KLM1170,2025-03-24 19:37:57,47529,Co,2025-03-24 18:18:43,79.88883691281315,Zwanenburgbaan36C_L,Boeing 737-800,KLM
Mon 01:12:15 PM,54.6004,3.9451,↓ 194°,464.0,534.0,"35,700",-975,FlightAware ADS-B (ETHE),Arrivals,KLM1158,2025-03-24 18:58:16,47535,Co,2025-03-24 18:26:11,78.70960615852167,Zwanenburgbaan36C_L,Embraer ERJ 190-100 STD,KLM
Mon 01:12:21 PM,52.0311,5.7558,↘ 131°,369.0,425.0,"26,000","1,600",FlightAware ADS-B (EIN / EHEH),Departures,KLM1823,2025-03-24 18:18:57,47541,Da,2025-03-24 14:45:43,77.95329219067148,Aalsmeerbaan36R_L,Embraer ERJ 170-200 STD,KLM
Mon 01:12:31 PM,52.171,7.1328,← 294°,439.0,505.0,"26,925","-2,625",FlightAware ADS-B (MST / EHBK),Arrivals,KLM844,2025-03-24 18:58:16,47551,Co,2025-03-24 17:34:00,68.17734625488245,Aalsmeerbaan36R_L,Boeing 777-300ER,KLM
Mon 01:12:38 PM,50.029,5.1451,↖ 336°,423.0,487.0,"35,175","-1,475",FlightAware ADS-B (CGN / EDDK),Arrivals,KLM1622,2025-03-24 18:58:16,47558,Co,2025-03-24 17:39:28,78.77510297872848,Zwanenburgbaan36C_L,Boeing 737-800,KLM
Mon 01:12:39 PM,59.1072,5.3133,↓ 187°,473.0,544.0,"25,450","1,475",FlightAware ADS-B (SVG / ENZV),Arrivals,KLM1170,2025-03-24 19:37:57,47559,Co,2025-03-24 18:18:43,79.88883691281315,Zwanenburgbaan36C_L,Boeing 737-800,KLM
Mon 01:12:45 PM,54.5387,3.9179,↓ 194°,462.0,532.0,"35,225",-975,FlightAware ADS-B (NWI / EGSH),Arrivals,KLM1158,2025-03-24 18:58:16,47565,Co,2025-03-24 18:26:11,78.70960615852167,Zwanenburgbaan36C_L,Embraer ERJ 190-100 STD,KLM
Mon 01:12:51 PM,51.4827,4.0849,↑ 4°,328.0,377.0,"14,500","-1,025",FlightAware ADS-B (EBGB),Arrivals,KLM596,2025-03-24 18:38:40,47571,Ku,2025-03-24 17:26:41,71.32310002002386,Aalsmeerbaan36R_L,Boeing 787-9,KLM
Mon 01:13:01 PM,52.1943,7.0413,← 292°,435.0,501.0,"25,975","-3,150",FlightAware ADS-B (EHHO),Arrivals,KLM844,2025-03-24 18:58:16,47581,Co,2025-03-24 17:34:00,68.17734625488245,Aalsmeerbaan36R_L,Boeing 777-300ER,KLM
Mon 01:13:08 PM,50.0811,5.1095,↖ 336°,424.0,488.0,"34,475","-1,425",FlightAware ADS-B (AMS / EHAM),Arrivals,KLM1622,2025-03-24 18:58:16,47588,Co,2025-03-24 17:39:28,78.77510297872848,Zwanenburgbaan36C_L,Boeing 737-800,KLM
Mon 01:13:09 PM,59.0422,5.2984,↓ 187°,478.0,550.0,"26,200","1,450",FlightAware ADS-B (SVG / ENZV),Arrivals,KLM1170,2025-03-24 19:37:57,47589,Co,2025-03-24 18:18:43,79.88883691281315,Zwanenburgbaan36C_L,Boeing 737-800,KLM
Mon 01:13:15 PM,54.4774,3.8909,↓ 194°,465.0,535.0,"34,725","-1,025",FlightAware ADS-B (EHDR),Arrivals,KLM1158,2025-03-24 18:58:16,47595,Co,2025-03-24 18:26:11,78.70960615852167,Zwanenburgbaan36C_L,Embraer ERJ 190-100 STD,KLM
Mon 01:13:21 PM,51.5248,4.0894,↑ 4°,326.0,375.0,"14,000",-975,FlightAware ADS-B (AMS / EHAM),Arrivals,KLM596,2025-03-24 18:38:40,47601,Ku,2025-03-24 17:26:41,71.32310002002386,Aalsmeerbaan36R_L,Boeing 787-9,KLM
Mon 01:13:31 PM,52.2162,6.9487,← 290°,459.0,528.0,"23,775","-3,582",FlightAware ADS-B (OST / EBOS),Arrivals,KLM844,2025-03-24 18:58:16,47611,Co,2025-03-24 17:34:00,68.17734625488245,Aalsmeerbaan36R_L,Boeing 777-300ER,KLM
Mon 01:13:38 PM,50.1358,5.0723,↖ 336°,424.0,488.0,"33,750","-1,450",FlightAware ADS-B (EBGB),Arrivals,KLM1622,2025-03-24 18:58:16,47618,Co,2025-03-24 17:39:28,78.77510297872848,Zwanenburgbaan36C_L,Boeing 737-800,KLM
Mon 01:13:39 PM,58.9735,5.2826,↓ 187°,485.0,558.0,"26,900","1,325",FlightAware ADS-B (BGO / ENBR),Arrivals,KLM1170,2025-03-24 19:37:57,47619,Co,2025-03-24 18:18:43,79.88883691281315,Zwanenburgbaan36C_L,Boeing 737-800,KLM
Mon 01:13:44 PM,51.9336,5.9387,↘ 131°,407.0,468.0,"27,000",375,FlightAware ADS-B (GRQ / EHGG),Departures,KLM1823,2025-03-24 18:38:40,47624,Da,2025-03-24 14:45:43,77.95329219067148,Aalsmeerbaan36R_L,Embraer ERJ 170-200 STD,KLM
Mon 01:13:45 AM,26.8664,-74.3344,↗ 41°,552.0,635.0,"39,000",25,FlightAware ADS-B (TBI / MYCB),Arrivals,KLM760,2025-03-24 13:51:30,4425,Co,2025-03-24 12:35:12,82.57059967900375,Zwanenburgbaan36C_L,Boeing 787-9,KLM
Mon 01:13:45 PM,54.4113,3.8619,↓ 194°,465.0,535.0,"34,200","-1,000",FlightAware ADS-B (EHHO),Arrivals,KLM1158,2025-03-24 18:58:16,47625,Co,2025-03-24 18:26:11,78.70960615852167,Zwanenburgbaan36C_L,Embraer ERJ 190-100 STD,KLM
Mon 01:13:50 PM,52.2294,6.8885,← 290°,444.0,511.0,"23,050","-2,051",FlightAware ADS-B (EDLS),Arrivals,KLM844,2025-03-24 18:58:16,47630,Co,2025-03-24 17:34:00,68.17734625488245,Aalsmeerbaan36R_L,Boeing 777-300ER,KLM
Mon 01:13:51 PM,51.5704,4.0945,↑ 4°,324.0,373.0,"13,525","-1,175",FlightAware ADS-B (RTM / EHRD),Arrivals,KLM596,2025-03-24 18:38:40,47631,Ku,2025-03-24 17:26:41,71.32310002002386,Aalsmeerbaan36R_L,Boeing 787-9,KLM
Mon 01:14:08 PM,50.1889,5.0358,↖ 336°,426.0,490.0,"33,025","-1,446",FlightAware ADS-B (EBUL),Arrivals,KLM1622,2025-03-24 18:58:16,47648,Co,2025-03-24 17:39:28,78.77510297872848,Zwanenburgbaan36C_L,Boeing 737-800,KLM
Mon 01:14:09 PM,58.9091,5.2679,↓ 187°,490.0,564.0,"27,525","1,225",FlightAware ADS-B (SVG / ENZV),Arrivals,KLM1170,2025-03-24 19:37:57,47649,Co,2025-03-24 18:18:43,79.88883691281315,Zwanenburgbaan36C_L,Boeing 737-800,KLM
Mon 01:14:15 PM,54.35,3.8352,↓ 194°,465.0,535.0,"33,725",-950,FlightAware ADS-B (MME / EGNV),Arrivals,KLM1158,2025-03-24 18:58:16,47655,Co,2025-03-24 18:26:11,78.70960615852167,Zwanenburgbaan36C_L,Embraer ERJ 190-100 STD,KLM
Mon 01:14:16 AM,26.9263,-74.2741,↗ 43°,554.0,638.0,"39,000",-22,FlightAware ADS-B (TBI / MYCB),Arrivals,KLM760,2025-03-24 13:51:30,4456,Co,2025-03-24 12:35:12,82.57059967900375,Zwanenburgbaan36C_L,Boeing 787-9,KLM
Mon 01:14:20 PM,52.2501,6.7917,← 289°,421.0,484.0,"22,100","-1,875",FlightAware ADS-B (GRQ / EHGG),Arrivals,KLM844,2025-03-24 18:58:16,47660,Co,2025-03-24 17:34:00,68.17734625488245,Aalsmeerbaan36R_L,Boeing 777-300ER,KLM
Mon 01:14:21 PM,51.6152,4.0995,↑ 4°,321.0,369.0,"12,825","-1,300",FlightAware ADS-B (AMS / EHAM),Arrivals,KLM596,2025-03-24 18:38:40,47661,Ku,2025-03-24 17:26:41,71.32310002002386,Aalsmeerbaan36R_L,Boeing 787-9,KLM
Mon 01:14:39 PM,58.8401,5.2523,↓ 187°,496.0,571.0,"28,125","1,150",FlightAware ADS-B (SVG / ENZV),Arrivals,KLM1170,2025-03-24 19:37:57,47679,Co,2025-03-24 18:18:43,79.88883691281315,Zwanenburgbaan36C_L,Boeing 737-800,KLM
Mon 01:14:42 PM,52.264,6.7271,← 289°,412.0,474.0,"21,425","-1,817",FlightAware ADS-B (EHDL),Arrivals,KLM844,2025-03-24 18:58:16,47682,Co,2025-03-24 17:34:00,68.17734625488245,Aalsmeerbaan36R_L,Boeing 777-300ER,KLM
Mon 01:14:51 PM,51.66,4.1045,↑ 4°,318.0,366.0,"12,225","-1,350",FlightAware ADS-B (BRU / EBBR),Arrivals,KLM596,2025-03-24 18:38:40,47691,Ku,2025-03-24 17:26:41,71.32310002002386,Aalsmeerbaan36R_L,Boeing 787-9,KLM
Mon 01:15:09 PM,58.7748,5.2376,↓ 187°,501.0,577.0,"28,675","1,200",FlightAware ADS-B (AAL / EKYT),Arrivals,KLM1170,2025-03-24 19:37:57,47709,Co,2025-03-24 18:18:43,79.88883691281315,Zwanenburgbaan36C_L,Boeing 737-800,KLM
Mon 01:15:11 PM,50.2891,2.8007,↗ 29°,385.0,443.0,"34,000",-24,FlightAware ADS-B (EGHR),Arrivals,IBS1793,2025-03-24 18:58:16,47711,Da,2025-03-24 17:42:28,67.29988761941017,Zwanenburgbaan36C_L,Airbus A320 214,Iberia
Mon 01:15:12 PM,52.2826,6.6409,← 289°,406.0,467.0,"20,525","-1,789",FlightAware ADS-B (GRQ / EHGG),Arrivals,KLM844,2025-03-24 18:58:16,47712,Co,2025-03-24 17:34:00,68.17734625488245,Aalsmeerbaan36R_L,Boeing 777-300ER,KLM
Mon 01:15:15 PM,54.2274,3.7819,↓ 194°,460.0,529.0,"32,725","-1,050",FlightAware ADS-B,Arrivals,KLM1158,2025-03-24 18:58:16,47715,Co,2025-03-24 18:26:11,78.70960615852167,Zwanenburgbaan36C_L,Embraer ERJ 190-100 STD,KLM
Mon 01:15:21 PM,51.7046,4.1095,↑ 4°,318.0,366.0,"11,475","-1,375",FlightAware ADS-B (AMS / EHAM),Arrivals,KLM596,2025-03-24 18:38:40,47721,Ku,2025-03-24 17:26:41,71.32310002002386,Aalsmeerbaan36R_L,Boeing 787-9,KLM
Mon 01:15:25 AM,27.0524,-74.1346,↗ 45°,556.0,640.0,"39,000",24,FlightAware ADS-B (TBI / MYCB),Arrivals,KLM760,2025-03-24 13:51:30,4525,Co,2025-03-24 12:35:12,82.57059967900375,Zwanenburgbaan36C_L,Boeing 787-9,KLM
Mon 01:15:29 PM,50.3363,4.9347,↖ 336°,430.0,495.0,"31,075","-1,378",FlightAware ADS-B (QEF / EDFE),Arrivals,KLM1622,2025-03-24 18:58:16,47729,Co,2025-03-24 17:39:28,78.77510297872848,Zwanenburgbaan36C_L,Boeing 737-800,KLM
Mon 01:15:37 PM,58.3549,15.7573,↙ 218°,207.0,238.0,"2,250","1,909",FlightAware ADS-B (LPI / ESSL),Arrivals,KLM1246,2025-03-24 19:57:51,47737,Da,2025-03-24 18:35:54,73.97836425772277,Aalsmeerbaan36R_L,Embraer ERJ 170-200 STD,KLM
Mon 01:15:41 PM,50.335,2.8413,↗ 30°,386.0,444.0,"33,975",-475,FlightAware ADS-B (RTM / EHRD),Arrivals,IBS1793,2025-03-24 18:58:16,47741,Da,2025-03-24 17:42:28,67.29988761941017,Zwanenburgbaan36C_L,Airbus A320 214,Iberia
Mon 01:15:45 PM,54.1634,3.7542,↓ 194°,455.0,524.0,"32,200","-1,000",FlightAware ADS-B (RTM / EHRD),Arrivals,KLM1158,2025-03-24 18:58:16,47745,Co,2025-03-24 18:26:11,78.70960615852167,Zwanenburgbaan36C_L,Embraer ERJ 190-100 STD,KLM
Mon 01:15:51 PM,51.7481,4.1143,↑ 4°,316.0,364.0,"10,850","-1,000",FlightAware ADS-B (RTM / EHRD),Arrivals,KLM596,2025-03-24 18:38:40,47751,Ku,2025-03-24 17:26:41,71.32310002002386,Aalsmeerbaan36R_L,Boeing 787-9,KLM
Mon 01:15:53 PM,58.3445,15.7396,↙ 224°,204.0,235.0,"3,000","3,000",FlightAware ADS-B (LPI / ESSL),Arrivals,KLM1246,2025-03-24 19:57:51,47753,Da,2025-03-24 18:35:54,73.97836425772277,Aalsmeerbaan36R_L,Embraer ERJ 170-200 STD,KLM
Mon 01:15:55 AM,27.1078,-74.0726,↗ 45°,557.0,641.0,"39,000",-21,FlightAware ADS-B (TBI / MYCB),Arrivals,KLM760,2025-03-24 13:51:30,4555,Co,2025-03-24 12:35:12,82.57059967900375,Zwanenburgbaan36C_L,Boeing 787-9,KLM
Mon 01:15:55 PM,51.6129,7.9677,← 302°,446.0,513.0,"38,000",-49,FlightAware ADS-B (CGN / EDDK),Arrivals,KLM1968,2025-03-24 18:58:16,47755,Da,2025-03-24 18:48:52,78.04397505191102,Aalsmeerbaan36R_L,Boeing 737-800,KLM
Mon 01:15:59 PM,50.3907,4.8972,↖ 336°,433.0,498.0,"30,475","-1,050",FlightAware ADS-B (MST / EHBK),Arrivals,KLM1622,2025-03-24 18:58:16,47759,Co,2025-03-24 17:39:28,78.77510297872848,Zwanenburgbaan36C_L,Boeing 737-800,KLM
Mon 01:16:02 PM,52.3132,6.4989,← 290°,395.0,455.0,"19,025","-1,755",FlightAware ADS-B (GLZ / EHGR),Arrivals,KLM844,2025-03-24 18:58:16,47762,Co,2025-03-24 17:34:00,68.17734625488245,Aalsmeerbaan36R_L,Boeing 777-300ER,KLM
Mon 01:16:09 PM,58.6349,5.2067,↓ 187°,506.0,582.0,"30,025","1,475",FlightAware ADS-B (AAL / EKYT),Arrivals,KLM1170,2025-03-24 19:37:57,47769,Co,2025-03-24 18:18:43,79.88883691281315,Zwanenburgbaan36C_L,Boeing 737-800,KLM
Mon 01:16:11 PM,50.3823,2.8831,↗ 30°,383.0,441.0,"33,525","-1,875",FlightAware ADS-B (OST / EBOS),Arrivals,IBS1793,2025-03-24 18:58:16,47771,Da,2025-03-24 17:42:28,67.29988761941017,Zwanenburgbaan36C_L,Airbus A320 214,Iberia
Mon 01:16:15 PM,54.1075,3.73,↓ 194°,448.0,516.0,"31,725",-975,FlightAware ADS-B (AMS / EHAM),Arrivals,KLM1158,2025-03-24 18:58:16,47775,Co,2025-03-24 18:26:11,78.70960615852167,Zwanenburgbaan36C_L,Embraer ERJ 190-100 STD,KLM
Mon 01:16:17 PM,58.3284,15.7083,↙ 226°,218.0,251.0,"4,250","2,667",FlightAware ADS-B (LPI / ESSL),Arrivals,KLM1246,2025-03-24 19:57:51,47777,Da,2025-03-24 18:35:54,73.97836425772277,Aalsmeerbaan36R_L,Embraer ERJ 170-200 STD,KLM
Mon 01:16:21 PM,51.7916,4.1191,↑ 4°,306.0,352.0,"10,475",-525,FlightAware ADS-B (RTM / EHRD),Arrivals,KLM596,2025-03-24 18:38:40,47781,Ku,2025-03-24 17:26:41,71.32310002002386,Aalsmeerbaan36R_L,Boeing 787-9,KLM
Mon 01:16:23 PM,51.6442,7.888,← 302°,448.0,516.0,"37,950",-849,FlightAware ADS-B (HAM / EDDH),Arrivals,KLM1968,2025-03-24 18:58:16,47783,Da,2025-03-24 18:48:52,78.04397505191102,Aalsmeerbaan36R_L,Boeing 737-800,KLM
Mon 01:16:25 PM,52.1124,4.8746,↙ 209°,238.0,274.0,"4,500",-161,FlightAware ADS-B (RTM / EHRD),Arrivals,DLH998,2025-03-24 18:38:40,47785,Co,2025-03-24 17:21:27,65.24489170601552,Aalsmeerbaan36R_L,Airbus A320 214,Delta Air Lines
Mon 01:16:32 PM,52.3308,6.4184,← 290°,388.0,447.0,"18,175","-1,760",FlightAware ADS-B (ESS / EDLE),Arrivals,KLM844,2025-03-24 18:58:16,47792,Co,2025-03-24 17:34:00,68.17734625488245,Aalsmeerbaan36R_L,Boeing 777-300ER,KLM
Mon 01:16:38 AM,27.185,-73.9863,↗ 45°,559.0,643.0,"38,975",-18,FlightAware ADS-B (MHH / MYAM),Arrivals,KLM760,2025-03-24 13:51:30,4598,Co,2025-03-24 12:35:12,82.57059967900375,Zwanenburgbaan36C_L,Boeing 787-9,KLM
Mon 01:16:39 PM,50.4624,4.8471,↖ 336°,433.0,498.0,"29,850",-976,FlightAware ADS-B (EBNM),Arrivals,KLM1622,2025-03-24 18:58:16,47799,Co,2025-03-24 17:39:28,78.77510297872848,Zwanenburgbaan36C_L,Boeing 737-800,KLM
Mon 01:16:41 PM,50.4268,2.9228,↗ 30°,383.0,441.0,"32,100","-2,750",FlightAware ADS-B (MST / EHBK),Arrivals,IBS1793,2025-03-24 18:58:16,47801,Da,2025-03-24 17:42:28,67.29988761941017,Zwanenburgbaan36C_L,Airbus A320 214,Iberia
Mon 01:16:45 PM,54.0451,3.7032,↓ 194°,441.0,507.0,"31,225","-1,025",FlightAware ADS-B (EGWE),Arrivals,KLM1158,2025-03-24 18:58:16,47805,Co,2025-03-24 18:26:11,78.70960615852167,Zwanenburgbaan36C_L,Embraer ERJ 190-100 STD,KLM
Mon 01:16:47 PM,58.3055,15.6642,↙ 225°,249.0,287.0,"5,400","2,491",FlightAware ADS-B (LPI / ESSL),Arrivals,KLM1246,2025-03-24 19:57:51,47807,Da,2025-03-24 18:35:54,73.97836425772277,Aalsmeerbaan36R_L,Embraer ERJ 170-200 STD,KLM
Mon 01:16:48 PM,51.6715,7.8179,← 302°,450.0,518.0,"37,250","-1,909",FlightAware ADS-B (DTM / EDLW),Arrivals,KLM1968,2025-03-24 18:58:16,47808,Da,2025-03-24 18:48:52,78.04397505191102,Aalsmeerbaan36R_L,Boeing 737-800,KLM
Mon 01:16:51 PM,51.8322,4.1236,↑ 4°,289.0,333.0,"10,325",-425,FlightAware ADS-B (ANR / EBAW),Arrivals,KLM596,2025-03-24 18:38:40,47811,Ku,2025-03-24 17:26:41,71.32310002002386,Aalsmeerbaan36R_L,Boeing 787-9,KLM
Mon 01:17:09 PM,52.0757,4.8295,↙ 245°,227.0,261.0,"3,875","-1,541",FlightAware ADS-B (EHHV),Arrivals,DLH998,2025-03-24 18:38:40,47829,Co,2025-03-24 17:21:27,65.24489170601552,Aalsmeerbaan36R_L,Airbus A320 214,Delta Air Lines
Mon 01:17:10 PM,58.2867,15.6289,↙ 225°,262.0,302.0,"6,450","2,927",FlightAware ADS-B (NRK / ESSP),Arrivals,KLM1246,2025-03-24 19:57:51,47830,Da,2025-03-24 18:35:54,73.97836425772277,Aalsmeerbaan36R_L,Embraer ERJ 170-200 STD,KLM
Mon 01:17:11 PM,50.4735,2.9645,↗ 30°,376.0,433.0,"30,775","-2,500",FlightAware ADS-B (BRU / EBBR),Arrivals,IBS1793,2025-03-24 18:58:16,47831,Da,2025-03-24 17:42:28,67.29988761941017,Zwanenburgbaan36C_L,Airbus A320 214,Iberia
Mon 01:17:15 PM,53.9866,3.6781,↓ 194°,435.0,501.0,"30,700","-1,025",FlightAware ADS-B (EGCJ),Arrivals,KLM1158,2025-03-24 18:58:16,47835,Co,2025-03-24 18:26:11,78.70960615852167,Zwanenburgbaan36C_L,Embraer ERJ 190-100 STD,KLM
Mon 01:17:18 PM,51.7046,7.733,← 302°,445.0,512.0,"36,200","-1,925",FlightAware ADS-B (EBBL),Arrivals,KLM1968,2025-03-24 18:58:16,47838,Da,2025-03-24 18:48:52,78.04397505191102,Aalsmeerbaan36R_L,Boeing 737-800,KLM
Mon 01:17:21 PM,51.8725,4.1281,↑ 4°,278.0,320.0,"10,050",-623,FlightAware ADS-B (EHVB),Arrivals,KLM596,2025-03-24 18:38:40,47841,Ku,2025-03-24 17:26:41,71.32310002002386,Aalsmeerbaan36R_L,Boeing 787-9,KLM
Mon 01:17:22 PM,50.5431,4.7909,↖ 336°,435.0,501.0,"29,125",-976,FlightAware ADS-B (CRL / EBCI),Arrivals,KLM1622,2025-03-24 18:58:16,47842,Co,2025-03-24 17:39:28,78.77510297872848,Zwanenburgbaan36C_L,Boeing 737-800,KLM
Mon 01:17:24 PM,52.3627,6.2716,← 289°,378.0,435.0,"16,600","-1,750",FlightAware ADS-B (EHLT),Arrivals,KLM844,2025-03-24 18:58:16,47844,Co,2025-03-24 17:34:00,68.17734625488245,Aalsmeerbaan36R_L,Boeing 777-300ER,KLM
Mon 01:17:28 PM,52.0733,4.798,← 270°,225.0,259.0,"3,400","-1,329",FlightAware ADS-B (RTM / EHRD),Arrivals,DLH998,2025-03-24 18:38:40,47848,Co,2025-03-24 17:21:27,65.24489170601552,Aalsmeerbaan36R_L,Airbus A320 214,Delta Air Lines
Mon 01:17:41 PM,50.5194,3.0053,↗ 30°,372.0,428.0,"29,600","-2,500",FlightAware ADS-B (EBGB),Arrivals,IBS1793,2025-03-24 18:58:16,47861,Da,2025-03-24 17:42:28,67.29988761941017,Zwanenburgbaan36C_L,Airbus A320 214,Iberia
Mon 01:17:44 PM,51.9002,4.1316,↑ 7°,274.0,315.0,"9,775",-915,FlightAware ADS-B (EHMZ),Arrivals,KLM596,2025-03-24 18:38:40,47864,Ku,2025-03-24 17:26:41,71.32310002002386,Aalsmeerbaan36R_L,Boeing 787-9,KLM
Mon 01:17:45 PM,53.9294,3.6537,↓ 194°,429.0,494.0,"30,200","-1,000",FlightAware ADS-B (EHDB),Arrivals,KLM1158,2025-03-24 18:58:16,47865,Co,2025-03-24 18:26:11,78.70960615852167,Zwanenburgbaan36C_L,Embraer ERJ 190-100 STD,KLM
Mon 01:18:02 PM,51.922,4.1462,↗ 32°,274.0,315.0,"9,425","-1,147",FlightAware ADS-B (EDLG),Arrivals,KLM596,2025-03-24 18:38:40,47882,Ku,2025-03-24 17:26:41,71.32310002002386,Aalsmeerbaan36R_L,Boeing 787-9,KLM
Mon 01:18:11 PM,50.5641,3.0451,↗ 30°,391.0,450.0,"28,275","-2,450",FlightAware ADS-B (CHR / LFLX),Arrivals,IBS1793,2025-03-24 18:58:16,47891,Da,2025-03-24 17:42:28,67.29988761941017,Zwanenburgbaan36C_L,Airbus A320 214,Iberia
Mon 01:18:12 PM,50.6344,4.727,↖ 336°,438.0,504.0,"28,325",-978,FlightAware ADS-B (AMS / EHAM),Arrivals,KLM1622,2025-03-24 18:58:16,47892,Co,2025-03-24 17:39:28,78.77510297872848,Zwanenburgbaan36C_L,Boeing 737-800,KLM
Mon 01:18:15 PM,53.8707,3.6286,↓ 194°,427.0,491.0,"29,700",-975,FlightAware ADS-B (RTM / EHRD),Arrivals,KLM1158,2025-03-24 18:58:16,47895,Co,2025-03-24 18:26:11,78.70960615852167,Zwanenburgbaan36C_L,Embraer ERJ 190-100 STD,KLM
Mon 01:18:16 PM,52.3918,6.1352,← 290°,369.0,425.0,"15,100","-1,673",FlightAware ADS-B (EHTE),Arrivals,KLM844,2025-03-24 18:58:16,47896,Co,2025-03-24 17:34:00,68.17734625488245,Aalsmeerbaan36R_L,Boeing 777-300ER,KLM
Mon 01:18:18 PM,51.936,4.1666,↗ 42°,275.0,316.0,"9,125","-1,103",FlightAware ADS-B (AMS / EHAM),Arrivals,KLM596,2025-03-24 18:38:40,47898,Ku,2025-03-24 17:26:41,71.32310002002386,Aalsmeerbaan36R_L,Boeing 787-9,KLM
Mon 01:18:20 PM,52.0997,4.7439,↑ 16°,205.0,236.0,"2,525",-713,FlightAware ADS-B (AMS / EHAM),Arrivals,DLH998,2025-03-24 18:38:40,47900,Co,2025-03-24 17:21:27,65.24489170601552,Aalsmeerbaan36R_L,Airbus A320 214,Delta Air Lines
Mon 01:18:35 PM,58.2139,15.4846,↙ 228°,292.0,336.0,"10,625","1,425",FlightAware ADS-B (ESHK),Arrivals,KLM1246,2025-03-24 19:57:51,47915,Da,2025-03-24 18:35:54,73.97836425772277,Aalsmeerbaan36R_L,Embraer ERJ 170-200 STD,KLM
Mon 01:18:36 PM,51.9525,4.1931,↗ 50°,275.0,316.0,"8,800","-1,157",FlightAware ADS-B (EHVB),Arrivals,KLM596,2025-03-24 18:38:40,47916,Ku,2025-03-24 17:26:41,71.32310002002386,Aalsmeerbaan36R_L,Boeing 787-9,KLM
Mon 01:18:38 AM,27.4045,-73.7397,↗ 45°,561.0,646.0,"38,975",17,FlightAware ADS-B (MHH / MYAM),Arrivals,KLM760,2025-03-24 13:51:30,4718,Co,2025-03-24 12:35:12,82.57059967900375,Zwanenburgbaan36C_L,Boeing 787-9,KLM
Mon 01:18:41 PM,50.6116,3.0877,↗ 30°,401.0,461.0,"27,150","-2,200",FlightAware ADS-B (EGSB),Arrivals,IBS1793,2025-03-24 18:58:16,47921,Da,2025-03-24 17:42:28,67.29988761941017,Zwanenburgbaan36C_L,Airbus A320 214,Iberia
Mon 01:18:42 PM,52.1172,4.7565,↑ 19°,192.0,221.0,"2,325",-592,FlightAware ADS-B (RTM / EHRD),Arrivals,DLH998,2025-03-24 18:38:40,47922,Co,2025-03-24 17:21:27,65.24489170601552,Aalsmeerbaan36R_L,Airbus A320 214,Delta Air Lines
Mon 01:18:46 PM,52.4085,6.0574,← 289°,363.0,418.0,"14,300","-1,302",FlightAware ADS-B (EHTE),Arrivals,KLM844,2025-03-24 18:58:16,47926,Co,2025-03-24 17:34:00,68.17734625488245,Aalsmeerbaan36R_L,Boeing 777-300ER,KLM
Mon 01:18:51 PM,50.7071,4.6762,↖ 336°,441.0,507.0,"27,700","-1,024",FlightAware ADS-B (EHHV),Arrivals,KLM1622,2025-03-24 18:58:16,47931,Co,2025-03-24 17:39:28,78.77510297872848,Zwanenburgbaan36C_L,Boeing 737-800,KLM
Mon 01:18:53 PM,51.9617,4.226,→ 72°,276.0,318.0,"8,450","-1,382",FlightAware ADS-B (EHVB),Arrivals,KLM596,2025-03-24 18:38:40,47933,Ku,2025-03-24 17:26:41,71.32310002002386,Aalsmeerbaan36R_L,Boeing 787-9,KLM
Mon 01:18:55 PM,51.8085,7.4649,← 302°,453.0,521.0,"33,100","-2,015",FlightAware ADS-B (EBBL),Arrivals,KLM1968,2025-03-24 18:58:16,47935,Da,2025-03-24 18:48:52,78.04397505191102,Aalsmeerbaan36R_L,Boeing 737-800,KLM
Mon 01:18:58 PM,52.1307,4.7612,↑ 9°,183.0,211.0,"2,150",-607,FlightAware ADS-B (UDE / EHVK),Arrivals,DLH998,2025-03-24 18:38:40,47938,Co,2025-03-24 17:21:27,65.24489170601552,Aalsmeerbaan36R_L,Airbus A320 214,Delta Air Lines
Mon 01:19:05 PM,58.1836,15.4213,↙ 228°,332.0,382.0,"10,950","1,156",FlightAware ADS-B (ESHK),Arrivals,KLM1246,2025-03-24 19:57:51,47945,Da,2025-03-24 18:35:54,73.97836425772277,Aalsmeerbaan36R_L,Embraer ERJ 170-200 STD,KLM
Mon 01:19:11 PM,50.6609,3.1318,↗ 30°,413.0,475.0,"26,075","-1,850",FlightAware ADS-B (KJK / EBKT),Arrivals,IBS1793,2025-03-24 18:58:16,47951,Da,2025-03-24 17:42:28,67.29988761941017,Zwanenburgbaan36C_L,Airbus A320 214,Iberia
Mon 01:19:13 PM,58.2229,5.1162,↓ 187°,478.0,550.0,"35,150",861,FlightAware ADS-B (ESTF),Arrivals,KLM1170,2025-03-24 19:37:57,47953,Co,2025-03-24 18:18:43,79.88883691281315,Zwanenburgbaan36C_L,Boeing 737-800,KLM
Mon 01:19:14 PM,51.9695,4.2678,→ 74°,278.0,320.0,"7,925","-1,529",FlightAware ADS-B (EHMB),Arrivals,KLM596,2025-03-24 18:38:40,47954,Ku,2025-03-24 17:26:41,71.32310002002386,Aalsmeerbaan36R_L,Boeing 787-9,KLM
Mon 01:19:15 PM,53.7567,3.5802,↓ 194°,425.0,489.0,"28,700","-1,025",FlightAware ADS-B (EGSQ),Arrivals,KLM1158,2025-03-24 18:58:16,47955,Co,2025-03-24 18:26:11,78.70960615852167,Zwanenburgbaan36C_L,Embraer ERJ 190-100 STD,KLM
Mon 01:19:19 AM,27.4811,-73.6533,↗ 45°,561.0,646.0,"39,000",21,FlightAware ADS-B (TBI / MYCB),Arrivals,KLM760,2025-03-24 13:51:30,4759,Co,2025-03-24 12:35:12,82.57059967900375,Zwanenburgbaan36C_L,Boeing 787-9,KLM
Mon 01:19:23 PM,58.1654,15.3832,↙ 229°,340.0,391.0,"11,550","2,110",FlightAware ADS-B (ESCF),Arrivals,KLM1246,2025-03-24 19:57:51,47963,Da,2025-03-24 18:35:54,73.97836425772277,Aalsmeerbaan36R_L,Embraer ERJ 170-200 STD,KLM
Mon 01:19:25 PM,51.8415,7.3788,← 302°,456.0,525.0,"32,100","-2,031",FlightAware ADS-B (EHTL),Arrivals,KLM1968,2025-03-24 18:58:16,47965,Da,2025-03-24 18:48:52,78.04397505191102,Aalsmeerbaan36R_L,Boeing 737-800,KLM
Mon 01:19:34 PM,50.7893,4.6182,↖ 336°,439.0,505.0,"26,925","-1,151",FlightAware ADS-B (GLZ / EHGR),Arrivals,KLM1622,2025-03-24 18:58:16,47974,Co,2025-03-24 17:39:28,78.77510297872848,Zwanenburgbaan36C_L,Boeing 737-800,KLM
Mon 01:19:43 PM,51.8627,7.3234,← 303°,453.0,521.0,"31,475","-2,000",FlightAware ADS-B (DUS / EDDL),Arrivals,KLM1968,2025-03-24 18:58:16,47983,Da,2025-03-24 18:48:52,78.04397505191102,Aalsmeerbaan36R_L,Boeing 737-800,KLM
Mon 01:19:44 PM,51.9804,4.327,→ 73°,282.0,325.0,"7,150","-1,400",FlightAware ADS-B (RTM / EHRD),Arrivals,KLM596,2025-03-24 18:38:40,47984,Ku,2025-03-24 17:26:41,71.32310002002386,Aalsmeerbaan36R_L,Boeing 787-9,KLM
Mon 01:19:45 PM,53.6994,3.556,↓ 195°,422.0,486.0,"28,200","-1,000",FlightAware ADS-B (LBA / EGNM),Arrivals,KLM1158,2025-03-24 18:58:16,47985,Co,2025-03-24 18:26:11,78.70960615852167,Zwanenburgbaan36C_L,Embraer ERJ 190-100 STD,KLM
Mon 01:19:54 PM,52.1762,4.7669,↑ 4°,151.0,174.0,"1,925",-50,FlightAware ADS-B (EHVB),Arrivals,DLH998,2025-03-24 18:38:40,47994,Co,2025-03-24 17:21:27,65.24489170601552,Aalsmeerbaan36R_L,Airbus A320 214,Delta Air Lines
Mon 01:19:55 PM,52.4514,5.8995,← 298°,305.0,351.0,"13,850",-525,FlightAware ADS-B (AMS / EHAM),Arrivals,KLM844,2025-03-24 18:58:16,47995,Co,2025-03-24 17:34:00,68.17734625488245,Aalsmeerbaan36R_L,Boeing 777-300ER,KLM
Mon 01:20:04 PM,50.8417,4.5812,↖ 336°,434.0,499.0,"26,300","-1,728",FlightAware ADS-B (AMS / EHAM),Arrivals,KLM1622,2025-03-24 18:58:16,48004,Co,2025-03-24 17:39:28,78.77510297872848,Zwanenburgbaan36C_L,Boeing 737-800,KLM
Mon 01:20:11 PM,50.7613,3.2217,↗ 30°,413.0,475.0,"24,750","-1,175",FlightAware ADS-B (CGN / EDDK),Arrivals,IBS1793,2025-03-24 18:58:16,48011,Da,2025-03-24 17:42:28,67.29988761941017,Zwanenburgbaan36C_L,Airbus A320 214,Iberia
Mon 01:20:13 PM,58.0921,5.0876,↓ 187°,484.0,557.0,"35,975",875,FlightAware ADS-B (ESTF),Arrivals,KLM1170,2025-03-24 19:37:57,48013,Co,2025-03-24 18:18:43,79.88883691281315,Zwanenburgbaan36C_L,Boeing 737-800,KLM
Mon 01:20:14 PM,51.9915,4.3853,→ 72°,280.0,322.0,"6,525","-1,100",FlightAware ADS-B (EBFN),Arrivals,KLM596,2025-03-24 18:38:40,48014,Ku,2025-03-24 17:26:41,71.32310002002386,Aalsmeerbaan36R_L,Boeing 787-9,KLM
Mon 01:20:15 PM,53.6437,3.5325,↓ 194°,416.0,479.0,"27,700",-969,FlightAware ADS-B (CBG / EGSC),Arrivals,KLM1158,2025-03-24 18:58:16,48015,Co,2025-03-24 18:26:11,78.70960615852167,Zwanenburgbaan36C_L,Embraer ERJ 190-100 STD,KLM
Mon 01:20:20 AM,27.5918,-73.5283,↗ 45°,562.0,647.0,"39,000",-25,FlightAware ADS-B (TBI / MYCB),Arrivals,KLM760,2025-03-24 13:51:30,4820,Co,2025-03-24 12:35:12,82.57059967900375,Zwanenburgbaan36C_L,Boeing 787-9,KLM
Mon 01:20:24 PM,52.1943,4.7684,↑ 3°,127.0,146.0,"1,850",-400,FlightAware ADS-B (AMS / EHAM),Arrivals,DLH998,2025-03-24 18:38:40,48024,Co,2025-03-24 17:21:27,65.24489170601552,Aalsmeerbaan36R_L,Airbus A320 214,Delta Air Lines
Mon 01:20:25 PM,52.4712,5.8373,← 297°,296.0,341.0,"13,350","-1,139",FlightAware ADS-B (EHHV),Arrivals,KLM844,2025-03-24 18:58:16,48025,Co,2025-03-24 17:34:00,68.17734625488245,Aalsmeerbaan36R_L,Boeing 777-300ER,KLM
Mon 01:20:26 PM,58.0949,15.2368,↙ 229°,362.0,417.0,"13,875","2,192",FlightAware ADS-B (ESCF),Arrivals,KLM1246,2025-03-24 19:57:51,48026,Da,2025-03-24 18:35:54,73.97836425772277,Aalsmeerbaan36R_L,Embraer ERJ 170-200 STD,KLM
Mon 01:20:33 PM,53.6111,3.5235,↓ 185°,413.0,475.0,"27,425",-947,FlightAware ADS-B (EGSJ),Arrivals,KLM1158,2025-03-24 18:58:16,48033,Co,2025-03-24 18:26:11,78.70960615852167,Zwanenburgbaan36C_L,Embraer ERJ 190-100 STD,KLM
Mon 01:20:40 PM,50.9044,4.5237,↖ 321°,439.0,505.0,"25,050","-1,105",FlightAware ADS-B (MST / EHBK),Arrivals,KLM1622,2025-03-24 18:58:16,48040,Co,2025-03-24 17:39:28,78.77510297872848,Zwanenburgbaan36C_L,Boeing 737-800,KLM
Mon 01:20:41 PM,50.8119,3.2677,↗ 30°,420.0,483.0,"24,125","-1,200",FlightAware ADS-B (BRU / EBBR),Arrivals,IBS1793,2025-03-24 18:58:16,48041,Da,2025-03-24 17:42:28,67.29988761941017,Zwanenburgbaan36C_L,Airbus A320 214,Iberia
Mon 01:20:43 PM,58.0277,5.0736,↓ 187°,485.0,558.0,"36,400",775,FlightAware ADS-B (KRS / ENCN),Arrivals,KLM1170,2025-03-24 19:37:57,48043,Co,2025-03-24 18:18:43,79.88883691281315,Zwanenburgbaan36C_L,Boeing 737-800,KLM
Mon 01:20:44 PM,52.0036,4.4477,→ 73°,271.0,312.0,"6,050",-765,FlightAware ADS-B (RTM / EHRD),Arrivals,KLM596,2025-03-24 18:38:40,48044,Ku,2025-03-24 17:26:41,71.32310002002386,Aalsmeerbaan36R_L,Boeing 787-9,KLM
Mon 01:20:49 PM,52.4857,5.79,← 294°,292.0,336.0,"12,825","-1,964",FlightAware ADS-B (EHTE),Arrivals,KLM844,2025-03-24 18:58:16,48049,Co,2025-03-24 17:34:00,68.17734625488245,Aalsmeerbaan36R_L,Boeing 777-300ER,KLM
Mon 01:20:50 PM,51.9346,7.1347,← 302°,449.0,517.0,"29,300","-1,978",FlightAware ADS-B (ENS / EHTW),Arrivals,KLM1968,2025-03-24 18:58:16,48050,Da,2025-03-24 18:48:52,78.04397505191102,Aalsmeerbaan36R_L,Boeing 737-800,KLM
Mon 01:20:54 PM,52.2118,4.7702,↑ 4°,121.0,139.0,"1,525",-700,FlightAware ADS-B (RTM / EHRD),Arrivals,DLH998,2025-03-24 18:38:40,48054,Co,2025-03-24 17:21:27,65.24489170601552,Aalsmeerbaan36R_L,Airbus A320 214,Delta Air Lines
Mon 01:20:56 PM,58.0607,15.1662,↙ 228°,372.0,428.0,"14,925","2,125",FlightAware ADS-B (GOT / ESGG),Arrivals,KLM1246,2025-03-24 19:57:51,48056,Da,2025-03-24 18:35:54,73.97836425772277,Aalsmeerbaan36R_L,Embraer ERJ 170-200 STD,KLM
Mon 01:20:58 PM,50.93,4.4834,← 312°,448.0,516.0,"24,900",-848,FlightAware ADS-B (AMS / EHAM),Arrivals,KLM1622,2025-03-24 18:58:16,48058,Co,2025-03-24 17:39:28,78.77510297872848,Zwanenburgbaan36C_L,Boeing 737-800,KLM
Mon 01:21:05 PM,52.0106,4.4844,→ 73°,260.0,299.0,"5,875",-500,FlightAware ADS-B (EBDT),Arrivals,KLM596,2025-03-24 18:38:40,48065,Ku,2025-03-24 17:26:41,71.32310002002386,Aalsmeerbaan36R_L,Boeing 787-9,KLM
Mon 01:21:07 PM,52.4938,5.7526,← 286°,291.0,335.0,"11,975","-2,308",FlightAware ADS-B (GKE / ETNG),Arrivals,KLM844,2025-03-24 18:58:16,48067,Co,2025-03-24 17:34:00,68.17734625488245,Aalsmeerbaan36R_L,Boeing 777-300ER,KLM
Mon 01:21:11 PM,50.8623,3.3133,↗ 30°,419.0,482.0,"23,550","-1,150",FlightAware ADS-B (EGSR),Arrivals,IBS1793,2025-03-24 18:58:16,48071,Da,2025-03-24 17:42:28,67.29988761941017,Zwanenburgbaan36C_L,Airbus A320 214,Iberia
Mon 01:21:20 AM,27.7022,-73.4031,↗ 45°,563.0,648.0,"39,000",25,FlightAware ADS-B (TBI / MYCB),Arrivals,KLM760,2025-03-24 13:51:30,4880,Co,2025-03-24 12:35:12,82.57059967900375,Zwanenburgbaan36C_L,Boeing 787-9,KLM
Mon 01:21:24 PM,52.2288,4.7717,↑ 3°,125.0,144.0,"1,150",-698,FlightAware ADS-B (RTM / EHRD),Arrivals,DLH998,2025-03-24 18:38:40,48084,Co,2025-03-24 17:21:27,65.24489170601552,Aalsmeerbaan36R_L,Airbus A320 214,Delta Air Lines
Mon 01:21:26 PM,50.9668,4.4102,← 308°,445.0,512.0,"24,400","-1,060",FlightAware ADS-B (FMO / EDDG),Arrivals,KLM1622,2025-03-24 18:58:16,48086,Co,2025-03-24 17:39:28,78.77510297872848,Zwanenburgbaan36C_L,Boeing 737-800,KLM
Mon 01:21:28 PM,52.4995,5.7098,← 277°,296.0,341.0,"11,325","-1,500",FlightAware ADS-B (EHHV),Arrivals,KLM844,2025-03-24 18:58:16,48088,Co,2025-03-24 17:34:00,68.17734625488245,Aalsmeerbaan36R_L,Boeing 777-300ER,KLM
Mon 01:21:29 PM,52.0188,4.5281,→ 73°,246.0,283.0,"5,675",-750,FlightAware ADS-B (EBGB),Arrivals,KLM596,2025-03-24 18:38:40,48089,Ku,2025-03-24 17:26:41,71.32310002002386,Aalsmeerbaan36R_L,Boeing 787-9,KLM
Mon 01:21:37 PM,52.2367,4.7724,↑ 3°,122.0,140.0,"1,025",-656,Surface and Near-Surface,Arrivals,DLH998,2025-03-24 18:38:40,48097,Co,2025-03-24 17:21:27,65.24489170601552,Aalsmeerbaan36R_L,Airbus A320 214,Delta Air Lines
Mon 01:21:40 PM,52.2381,4.7726,↑ 3°,123.0,142.0,975,-789,FlightAware ADS-B (AMS / EHAM),Arrivals,DLH998,2025-03-24 18:38:40,48100,Co,2025-03-24 17:21:27,65.24489170601552,Aalsmeerbaan36R_L,Airbus A320 214,Delta Air Lines
Mon 01:21:41 PM,50.9115,3.3578,↗ 30°,416.0,479.0,"22,975","-1,200",FlightAware ADS-B (LIL / LFQQ),Arrivals,IBS1793,2025-03-24 18:58:16,48101,Da,2025-03-24 17:42:28,67.29988761941017,Zwanenburgbaan36C_L,Airbus A320 214,Iberia
Mon 01:21:44 PM,57.8885,5.0438,↓ 187°,492.0,566.0,"37,100",738,FlightAware ADS-B (AAL / EKYT),Arrivals,KLM1170,2025-03-24 19:37:57,48104,Co,2025-03-24 18:18:43,79.88883691281315,Zwanenburgbaan36C_L,Boeing 737-800,KLM
Mon 01:21:55 PM,49.9662,2.8365,↗ 28°,384.0,442.0,"36,650",-891,FlightAware ADS-B (ODH / EGVO),Arrivals,KLM1454,2025-03-24 19:18:23,48115,Da,2025-03-24 13:17:02,75.91350479131631,Aalsmeerbaan36R_L,Embraer ERJ 170-200 STD,KLM
Mon 01:21:56 PM,52.2478,4.7734,↑ 3°,125.0,144.0,775,-750,FlightAware ADS-B (AMS / EHAM),Arrivals,DLH998,2025-03-24 18:38:40,48116,Co,2025-03-24 17:21:27,65.24489170601552,Aalsmeerbaan36R_L,Airbus A320 214,Delta Air Lines
Mon 01:21:59 PM,52.0286,4.5808,→ 73°,241.0,277.0,"5,200","-1,050",FlightAware ADS-B (RTM / EHRD),Arrivals,KLM596,2025-03-24 18:38:40,48119,Ku,2025-03-24 17:26:41,71.32310002002386,Aalsmeerbaan36R_L,Boeing 787-9,KLM
Mon 01:22:11 PM,50.9603,3.4023,↗ 30°,406.0,467.0,"22,350",-950,FlightAware ADS-B (LFQL),Arrivals,IBS1793,2025-03-24 18:58:16,48131,Da,2025-03-24 17:42:28,67.29988761941017,Zwanenburgbaan36C_L,Airbus A320 214,Iberia
Mon 01:22:12 PM,52.2568,4.7743,↑ 4°,130.0,150.0,575,-703,FlightAware ADS-B (AMS / EHAM),Arrivals,DLH998,2025-03-24 18:38:40,48132,Co,2025-03-24 17:21:27,65.24489170601552,Aalsmeerbaan36R_L,Airbus A320 214,Delta Air Lines
Mon 01:22:13 PM,52.5076,5.6102,← 278°,289.0,333.0,"10,400","-1,224",FlightAware ADS-B (EHTE),Arrivals,KLM844,2025-03-24 18:58:16,48133,Co,2025-03-24 17:34:00,68.17734625488245,Aalsmeerbaan36R_L,Boeing 777-300ER,KLM
Mon 01:22:14 PM,57.8215,5.0293,↓ 187°,492.0,566.0,"37,500",811,FlightAware ADS-B (TRF / ENTO),Arrivals,KLM1170,2025-03-24 19:37:57,48134,Co,2025-03-24 18:18:43,79.88883691281315,Zwanenburgbaan36C_L,Boeing 737-800,KLM
Mon 01:22:26 PM,51.0419,4.2595,← 308°,432.0,497.0,"23,375","-1,025",FlightAware ADS-B (EIN / EHEH),Arrivals,KLM1622,2025-03-24 18:58:16,48146,Co,2025-03-24 17:39:28,78.77510297872848,Zwanenburgbaan36C_L,Boeing 737-800,KLM
Mon 01:22:28 PM,52.266,4.775,↑ 3°,123.0,142.0,400,-656,FlightAware ADS-B (AMS / EHAM),Arrivals,DLH998,2025-03-24 18:38:40,48148,Co,2025-03-24 17:21:27,65.24489170601552,Aalsmeerbaan36R_L,Airbus A320 214,Delta Air Lines
Mon 01:22:29 PM,52.0384,4.6338,→ 73°,240.0,276.0,"4,625",-764,FlightAware ADS-B (EHHV),Arrivals,KLM596,2025-03-24 18:38:40,48149,Ku,2025-03-24 17:26:41,71.32310002002386,Aalsmeerbaan36R_L,Boeing 787-9,KLM
Mon 01:22:34 PM,52.5079,5.5614,← 261°,288.0,331.0,"9,975","-1,054",FlightAware ADS-B (LEY / EHLE),Arrivals,KLM844,2025-03-24 18:58:16,48154,Co,2025-03-24 17:34:00,68.17734625488245,Aalsmeerbaan36R_L,Boeing 777-300ER,KLM
Mon 01:22:35 PM,50.0287,2.8759,↑ 21°,369.0,425.0,"35,975","-1,007",FlightAware ADS-B (EBSJ),Arrivals,KLM1454,2025-03-24 19:18:23,48155,Da,2025-03-24 13:17:02,75.91350479131631,Aalsmeerbaan36R_L,Embraer ERJ 170-200 STD,KLM
Mon 01:22:41 PM,51.0072,3.4452,↗ 30°,370.0,426.0,"22,025",-375,FlightAware ADS-B (EBGB),Arrivals,IBS1793,2025-03-24 18:58:16,48161,Da,2025-03-24 17:42:28,67.29988761941017,Zwanenburgbaan36C_L,Airbus A320 214,Iberia
Mon 01:22:44 PM,52.2746,4.7759,↑ 3°,120.0,138.0,225,-656,FlightAware ADS-B (AMS / EHAM),Arrivals,DLH998,2025-03-24 18:38:40,48164,Co,2025-03-24 17:21:27,65.24489170601552,Aalsmeerbaan36R_L,Airbus A320 214,Delta Air Lines
Mon 01:22:45 PM,57.7497,5.0139,↓ 186°,492.0,566.0,"37,925",441,FlightAware ADS-B (SVG / ENZV),Arrivals,KLM1170,2025-03-24 19:37:57,48165,Co,2025-03-24 18:18:43,79.88883691281315,Zwanenburgbaan36C_L,Boeing 737-800,KLM
Mon 01:22:50 PM,52.5021,5.5279,← 250°,291.0,335.0,"9,750",-943,FlightAware ADS-B (EHTE),Arrivals,KLM844,2025-03-24 18:58:16,48170,Co,2025-03-24 17:34:00,68.17734625488245,Aalsmeerbaan36R_L,Boeing 777-300ER,KLM
Mon 01:22:54 PM,52.0473,4.6792,→ 71°,241.0,277.0,"4,500",-279,FlightAware ADS-B (BRU / EBBR),Arrivals,KLM596,2025-03-24 18:38:40,48174,Ku,2025-03-24 17:26:41,71.32310002002386,Aalsmeerbaan36R_L,Boeing 787-9,KLM
Mon 01:22:56 PM,51.0783,4.1868,← 308°,430.0,495.0,"22,850",-975,FlightAware ADS-B (MST / EHBK),Arrivals,KLM1622,2025-03-24 18:58:16,48176,Co,2025-03-24 17:39:28,78.77510297872848,Zwanenburgbaan36C_L,Boeing 737-800,KLM
Mon 01:22:59 PM,52.0741,6.7647,← 301°,439.0,505.0,"24,950","-2,125",FlightAware ADS-B (DTM / EDLW),Arrivals,KLM1968,2025-03-24 18:58:16,48179,Da,2025-03-24 18:48:52,78.04397505191102,Aalsmeerbaan36R_L,Boeing 737-800,KLM
Mon 01:23:00 PM,52.2835,4.7767,↑ 3°,119.0,137.0,50,-703,FlightAware ADS-B (AMS / EHAM),Arrivals,DLH998,2025-03-24 18:38:40,48180,Co,2025-03-24 17:21:27,65.24489170601552,Aalsmeerbaan36R_L,Airbus A320 214,Delta Air Lines
Mon 01:23:05 PM,50.08,2.9072,↗ 22°,378.0,435.0,"35,475",-950,FlightAware ADS-B (EBGB),Arrivals,KLM1454,2025-03-24 19:18:23,48185,Da,2025-03-24 13:17:02,75.91350479131631,Aalsmeerbaan36R_L,Embraer ERJ 170-200 STD,KLM
Mon 01:23:09 AM,13.6523,100.7296,↓ 195°,197.0,227.0,"1,350","2,603",FlightAware ADS-B (BKK / VTBS),Arrivals,KLM844,2025-03-24 18:58:16,4989,Co,2025-03-24 17:34:00,68.17734625488245,Aalsmeerbaan36R_L,Boeing 777-300ER,KLM
Mon 01:23:09 PM,53.3092,3.5885,↓ 170°,410.0,472.0,"23,725","-1,886",FlightAware ADS-B (NWI / EGSH),Arrivals,KLM1158,2025-03-24 18:58:16,48189,Co,2025-03-24 18:26:11,78.70960615852167,Zwanenburgbaan36C_L,Embraer ERJ 190-100 STD,KLM
Mon 01:23:11 PM,51.0516,3.486,↗ 30°,365.0,420.0,"21,975",-25,FlightAware ADS-B (RCS / EGTO),Arrivals,IBS1793,2025-03-24 18:58:16,48191,Da,2025-03-24 17:42:28,67.29988761941017,Zwanenburgbaan36C_L,Airbus A320 214,Iberia
Mon 01:23:12 PM,52.0579,4.7037,↗ 43°,235.0,270.0,"4,425",-638,FlightAware ADS-B (BRU / EBBR),Arrivals,KLM596,2025-03-24 18:38:40,48192,Ku,2025-03-24 17:26:41,71.32310002002386,Aalsmeerbaan36R_L,Boeing 787-9,KLM
Mon 01:23:16 PM,52.293,4.7776,↑ 3°,120.0,138.0,699.2212135454027,-750,FlightAware ADS-B (AMS / EHAM),Arrivals,DLH998,2025-03-24 18:38:40,48196,Co,2025-03-24 17:21:27,65.24489170601552,Aalsmeerbaan36R_L,Airbus A320 214,Delta Air Lines
Mon 01:23:20 AM,27.923,-73.1515,↗ 45°,564.0,649.0,"39,000",-20,FlightAware ADS-B (TBI / MYCB),Arrivals,KLM760,2025-03-24 13:51:30,5000,Co,2025-03-24 12:35:12,82.57059967900375,Zwanenburgbaan36C_L,Boeing 787-9,KLM
Mon 01:23:22 PM,57.6656,4.9963,↓ 186°,493.0,567.0,"38,000",64,FlightAware ADS-B (AAL / EKYT),Arrivals,KLM1170,2025-03-24 19:37:57,48202,Co,2025-03-24 18:18:43,79.88883691281315,Zwanenburgbaan36C_L,Boeing 737-800,KLM
Mon 01:23:26 AM,13.6379,100.7257,↓ 194°,196.0,226.0,"2,050","1,773",FlightAware ADS-B (DMK / VTBD),Arrivals,KLM844,2025-03-24 18:58:16,5006,Co,2025-03-24 17:34:00,68.17734625488245,Aalsmeerbaan36R_L,Boeing 777-300ER,KLM
Mon 01:23:26 PM,51.1142,4.1151,← 308°,426.0,490.0,"22,400",-975,FlightAware ADS-B (EBWE),Arrivals,KLM1622,2025-03-24 18:58:16,48206,Co,2025-03-24 17:39:28,78.77510297872848,Zwanenburgbaan36C_L,Boeing 737-800,KLM
Mon 01:23:28 PM,52.4859,5.451,← 250°,287.0,330.0,"9,100",-988,FlightAware ADS-B (EHTE),Arrivals,KLM844,2025-03-24 18:58:16,48208,Co,2025-03-24 17:34:00,68.17734625488245,Aalsmeerbaan36R_L,Boeing 777-300ER,KLM
Mon 01:23:29 PM,52.1051,6.6817,← 301°,430.0,495.0,"23,850","-2,100",FlightAware ADS-B (HAJ / EDDV),Arrivals,KLM1968,2025-03-24 18:58:16,48209,Da,2025-03-24 18:48:52,78.04397505191102,Aalsmeerbaan36R_L,Boeing 737-800,KLM
Mon 01:23:34 PM,57.8679,14.7716,↙ 227°,410.0,472.0,"19,950","1,575",FlightAware ADS-B (KLR / ESMQ),Arrivals,KLM1246,2025-03-24 19:57:51,48214,Da,2025-03-24 18:35:54,73.97836425772277,Aalsmeerbaan36R_L,Embraer ERJ 170-200 STD,KLM
Mon 01:23:35 PM,50.1275,2.9371,↗ 22°,385.0,443.0,"35,025",-950,FlightAware ADS-B (EBGB),Arrivals,KLM1454,2025-03-24 19:18:23,48215,Da,2025-03-24 13:17:02,75.91350479131631,Aalsmeerbaan36R_L,Embraer ERJ 170-200 STD,KLM
Mon 01:23:39 PM,53.2545,3.6046,↓ 170°,404.0,465.0,"22,775","-1,925",FlightAware ADS-B (NWI / EGSH),Arrivals,KLM1158,2025-03-24 18:58:16,48219,Co,2025-03-24 18:26:11,78.70960615852167,Zwanenburgbaan36C_L,Embraer ERJ 190-100 STD,KLM
Mon 01:23:41 PM,52.0815,4.7347,↗ 39°,230.0,265.0,"4,000",-638,FlightAware ADS-B (EHSE),Arrivals,KLM596,2025-03-24 18:38:40,48221,Ku,2025-03-24 17:26:41,71.32310002002386,Aalsmeerbaan36R_L,Boeing 787-9,KLM
Mon 01:23:42 AM,13.6232,100.7219,↓ 194°,208.0,239.0,"2,325","1,500",FlightAware ADS-B (BKK / VTBS),Arrivals,KLM844,2025-03-24 18:58:16,5022,Co,2025-03-24 17:34:00,68.17734625488245,Aalsmeerbaan36R_L,Boeing 777-300ER,KLM
Mon 01:23:50 PM,52.4717,5.4095,↙ 233°,287.0,330.0,"8,750",-987,FlightAware ADS-B (LEY / EHLE),Arrivals,KLM844,2025-03-24 18:58:16,48230,Co,2025-03-24 17:34:00,68.17734625488245,Aalsmeerbaan36R_L,Boeing 777-300ER,KLM
Mon 01:23:56 PM,51.1513,4.0402,← 308°,427.0,491.0,"21,875","-1,000",FlightAware ADS-B (RCS / EGTO),Arrivals,KLM1622,2025-03-24 18:58:16,48236,Co,2025-03-24 17:39:28,78.77510297872848,Zwanenburgbaan36C_L,Boeing 737-800,KLM
Mon 01:23:59 PM,52.0959,4.7532,↗ 35°,212.0,244.0,"3,925",-730,FlightAware ADS-B (UTC / EHSB),Arrivals,KLM596,2025-03-24 18:38:40,48239,Ku,2025-03-24 17:26:41,71.32310002002386,Aalsmeerbaan36R_L,Boeing 787-9,KLM
Mon 01:24:04 PM,57.8291,14.6929,↙ 227°,420.0,483.0,"20,700","1,600",FlightAware ADS-B (VXO / ESMX),Arrivals,KLM1246,2025-03-24 19:57:51,48244,Da,2025-03-24 18:35:54,73.97836425772277,Aalsmeerbaan36R_L,Embraer ERJ 170-200 STD,KLM
Mon 01:24:06 AM,28.006,-73.0566,↗ 46°,564.0,649.0,"38,975",-15,FlightAware ADS-B (MHH / MYAM),Arrivals,KLM760,2025-03-24 13:51:30,5046,Co,2025-03-24 12:35:12,82.57059967900375,Zwanenburgbaan36C_L,Boeing 787-9,KLM
Mon 01:24:06 PM,52.4568,5.3846,↙ 221°,288.0,331.0,"8,475",-978,FlightAware ADS-B (EHDL),Arrivals,KLM844,2025-03-24 18:58:16,48246,Co,2025-03-24 17:34:00,68.17734625488245,Aalsmeerbaan36R_L,Boeing 777-300ER,KLM
Mon 01:24:07 AM,13.5995,100.7157,↓ 195°,212.0,244.0,"3,075","1,364",FlightAware ADS-B (BKK / VTBS),Arrivals,KLM844,2025-03-24 18:58:16,5047,Co,2025-03-24 17:34:00,68.17734625488245,Aalsmeerbaan36R_L,Boeing 777-300ER,KLM
Mon 01:24:09 PM,53.1988,3.6209,↓ 170°,396.0,456.0,"21,800","-1,875",FlightAware ADS-B (AMS / EHAM),Arrivals,KLM1158,2025-03-24 18:58:16,48249,Co,2025-03-24 18:26:11,78.70960615852167,Zwanenburgbaan36C_L,Embraer ERJ 190-100 STD,KLM
Mon 01:24:11 PM,51.1407,3.5679,↗ 30°,367.0,422.0,"22,000",-25,FlightAware ADS-B (EIN / EHEH),Arrivals,IBS1793,2025-03-24 18:58:16,48251,Da,2025-03-24 17:42:28,67.29988761941017,Zwanenburgbaan36C_L,Airbus A320 214,Iberia
Mon 01:24:18 PM,52.113,4.7624,↑ 3°,207.0,238.0,"3,550","-1,272",FlightAware ADS-B (RTM / EHRD),Arrivals,KLM596,2025-03-24 18:38:40,48258,Ku,2025-03-24 17:26:41,71.32310002002386,Aalsmeerbaan36R_L,Boeing 787-9,KLM
Mon 01:24:20 PM,51.0066,7.3615,↘ 152°,452.0,520.0,"25,050","-2,525",FlightAware ADS-B (CGN / EDDK),Departures,KLM1823,2025-03-24 18:38:40,48260,Da,2025-03-24 14:45:43,77.95329219067148,Aalsmeerbaan36R_L,Embraer ERJ 170-200 STD,KLM
Mon 01:24:22 PM,52.1587,6.5379,← 301°,408.0,470.0,"22,075","-1,981",FlightAware ADS-B (UDE / EHVK),Arrivals,KLM1968,2025-03-24 18:58:16,48262,Da,2025-03-24 18:48:52,78.04397505191102,Aalsmeerbaan36R_L,Boeing 737-800,KLM
Mon 01:24:25 PM,47.6491,20.8221,← 301°,430.0,495.0,"40,000",-25,FlightAware ADS-B (BAY / LRBM),Arrivals,KLM896,2025-03-24 20:37:17,48265,Ku,2025-03-24 19:10:34,69.8932725457443,Aalsmeerbaan36R_L,Boeing 777-200,KLM
Mon 01:24:34 PM,57.7891,14.6121,↙ 227°,426.0,490.0,"21,550","1,625",FlightAware ADS-B (GOT / ESGG),Arrivals,KLM1246,2025-03-24 19:57:51,48274,Da,2025-03-24 18:35:54,73.97836425772277,Aalsmeerbaan36R_L,Embraer ERJ 170-200 STD,KLM
Mon 01:24:35 PM,50.2265,3.0004,↗ 23°,386.0,444.0,"34,075",-925,FlightAware ADS-B (EBUL),Arrivals,KLM1454,2025-03-24 19:18:23,48275,Da,2025-03-24 13:17:02,75.91350479131631,Aalsmeerbaan36R_L,Embraer ERJ 170-200 STD,KLM
Mon 01:24:36 PM,52.4264,5.3408,↙ 221°,290.0,334.0,"8,000","-1,000",FlightAware ADS-B (EHHV),Arrivals,KLM844,2025-03-24 18:58:16,48276,Co,2025-03-24 17:34:00,68.17734625488245,Aalsmeerbaan36R_L,Boeing 777-300ER,KLM
Mon 01:24:37 AM,13.568,100.7074,↓ 195°,241.0,277.0,"3,575",946,FlightAware ADS-B (BKK / VTBS),Arrivals,KLM844,2025-03-24 18:58:16,5077,Co,2025-03-24 17:34:00,68.17734625488245,Aalsmeerbaan36R_L,Boeing 777-300ER,KLM
Mon 01:24:39 PM,53.1446,3.6366,↓ 170°,388.0,447.0,"20,900","-1,787",FlightAware ADS-B (AMS / EHAM),Arrivals,KLM1158,2025-03-24 18:58:16,48279,Co,2025-03-24 18:26:11,78.70960615852167,Zwanenburgbaan36C_L,Embraer ERJ 190-100 STD,KLM
Mon 01:24:41 PM,51.1852,3.6089,↗ 30°,365.0,420.0,"21,975",-289,FlightAware ADS-B (EGUW),Arrivals,IBS1793,2025-03-24 18:58:16,48281,Da,2025-03-24 17:42:28,67.29988761941017,Zwanenburgbaan36C_L,Airbus A320 214,Iberia
Mon 01:24:45 PM,52.1402,4.7638,↑ 4°,208.0,239.0,"2,950","-1,184",FlightAware ADS-B (UDE / EHVK),Arrivals,KLM596,2025-03-24 18:38:40,48285,Ku,2025-03-24 17:26:41,71.32310002002386,Aalsmeerbaan36R_L,Boeing 787-9,KLM
Mon 01:24:52 PM,52.1874,6.4603,← 301°,402.0,463.0,"21,100","-1,975",FlightAware ADS-B (UDE / EHVK),Arrivals,KLM1968,2025-03-24 18:58:16,48292,Da,2025-03-24 18:48:52,78.04397505191102,Aalsmeerbaan36R_L,Boeing 737-800,KLM
Mon 01:24:53 AM,13.5518,100.7024,↙ 203°,256.0,295.0,"3,800",926,FlightAware ADS-B (DMK / VTBD),Arrivals,KLM844,2025-03-24 18:58:16,5093,Co,2025-03-24 17:34:00,68.17734625488245,Aalsmeerbaan36R_L,Boeing 777-300ER,KLM
Mon 01:24:54 PM,51.2395,3.9384,↑ 352°,393.0,452.0,"20,875","-1,014",FlightAware ADS-B (EHHO),Arrivals,KLM1622,2025-03-24 18:58:16,48294,Co,2025-03-24 17:39:28,78.77510297872848,Zwanenburgbaan36C_L,Boeing 737-800,KLM
Mon 01:24:56 PM,53.1155,3.6436,↓ 174°,388.0,447.0,"20,400","-1,691",FlightAware ADS-B (RTM / EHRD),Arrivals,KLM1158,2025-03-24 18:58:16,48296,Co,2025-03-24 18:26:11,78.70960615852167,Zwanenburgbaan36C_L,Embraer ERJ 190-100 STD,KLM
Mon 01:24:59 PM,50.9363,7.4192,↘ 153°,436.0,502.0,"23,425","-2,500",FlightAware ADS-B (CGN / EDDK),Departures,KLM1823,2025-03-24 18:38:40,48299,Da,2025-03-24 14:45:43,77.95329219067148,Aalsmeerbaan36R_L,Embraer ERJ 170-200 STD,KLM
Mon 01:25:01 AM,28.1079,-72.9398,↗ 46°,564.0,649.0,"38,975",17,FlightAware ADS-B (MHH / MYAM),Arrivals,KLM760,2025-03-24 13:51:30,5101,Co,2025-03-24 12:35:12,82.57059967900375,Zwanenburgbaan36C_L,Boeing 787-9,KLM
Mon 01:25:05 PM,50.2746,3.0318,↗ 23°,384.0,442.0,"33,600",-975,FlightAware ADS-B (LIL / LFQQ),Arrivals,KLM1454,2025-03-24 19:18:23,48305,Da,2025-03-24 13:17:02,75.91350479131631,Aalsmeerbaan36R_L,Embraer ERJ 170-200 STD,KLM
Mon 01:25:06 PM,52.3958,5.2972,↙ 221°,286.0,329.0,"7,475",-925,FlightAware ADS-B (GRQ / EHGG),Arrivals,KLM844,2025-03-24 18:58:16,48306,Co,2025-03-24 17:34:00,68.17734625488245,Aalsmeerbaan36R_L,Boeing 777-300ER,KLM
Mon 01:25:08 PM,51.2239,3.6439,↗ 27°,342.0,394.0,"21,725",-682,FlightAware ADS-B (BRU / EBBR),Arrivals,IBS1793,2025-03-24 18:58:16,48308,Da,2025-03-24 17:42:28,67.29988761941017,Zwanenburgbaan36C_L,Airbus A320 214,Iberia
Mon 01:25:11 AM,13.5364,100.6888,↙ 237°,269.0,310.0,"4,100",943,FlightAware ADS-B (BKK / VTBS),Arrivals,KLM844,2025-03-24 18:58:16,5111,Co,2025-03-24 17:34:00,68.17734625488245,Aalsmeerbaan36R_L,Boeing 777-300ER,KLM
Mon 01:25:14 PM,51.2768,3.9439,↑ 12°,387.0,445.0,"20,525","-1,000",FlightAware ADS-B (ANR / EBAW),Arrivals,KLM1622,2025-03-24 18:58:16,48314,Co,2025-03-24 17:39:28,78.77510297872848,Zwanenburgbaan36C_L,Boeing 737-800,KLM
Mon 01:25:15 PM,52.1666,4.766,↑ 3°,191.0,220.0,"2,425","-1,075",FlightAware ADS-B (AMS / EHAM),Arrivals,KLM596,2025-03-24 18:38:40,48315,Ku,2025-03-24 17:26:41,71.32310002002386,Aalsmeerbaan36R_L,Boeing 787-9,KLM
Mon 01:25:22 PM,52.217,6.3804,← 301°,398.0,458.0,"20,100","-1,925",FlightAware ADS-B (EDRV),Arrivals,KLM1968,2025-03-24 18:58:16,48322,Da,2025-03-24 18:48:52,78.04397505191102,Aalsmeerbaan36R_L,Boeing 737-800,KLM
Mon 01:25:25 PM,51.2489,3.6552,↑ 6°,332.0,382.0,"21,475",-815,FlightAware ADS-B (EHVB),Arrivals,IBS1793,2025-03-24 18:58:16,48325,Da,2025-03-24 17:42:28,67.29988761941017,Zwanenburgbaan36C_L,Airbus A320 214,Iberia
Mon 01:25:26 PM,53.0621,3.651,↓ 176°,386.0,444.0,"19,575","-1,700",FlightAware ADS-B (EGSK),Arrivals,KLM1158,2025-03-24 18:58:16,48326,Co,2025-03-24 18:26:11,78.70960615852167,Zwanenburgbaan36C_L,Embraer ERJ 190-100 STD,KLM
Mon 01:25:28 AM,13.5306,100.6645,← 274°,286.0,329.0,"4,350","1,402",FlightAware ADS-B (BKK / VTBS),Arrivals,KLM844,2025-03-24 18:58:16,5128,Co,2025-03-24 17:34:00,68.17734625488245,Aalsmeerbaan36R_L,Boeing 777-300ER,KLM
Mon 01:25:34 AM,28.168,-72.8706,↗ 46°,563.0,648.0,"39,000",1,FlightAware ADS-B (MHH / MYAM),Arrivals,KLM760,2025-03-24 13:51:30,5134,Co,2025-03-24 12:35:12,82.57059967900375,Zwanenburgbaan36C_L,Boeing 787-9,KLM
Mon 01:25:36 PM,52.3669,5.2563,↙ 221°,275.0,316.0,"7,075",-685,FlightAware ADS-B (RTM / EHRD),Arrivals,KLM844,2025-03-24 18:58:16,48336,Co,2025-03-24 17:34:00,68.17734625488245,Aalsmeerbaan36R_L,Boeing 777-300ER,KLM
Mon 01:25:45 PM,52.1918,4.7683,↑ 3°,170.0,196.0,"1,875","-1,000",FlightAware ADS-B (RTM / EHRD),Arrivals,KLM596,2025-03-24 18:38:40,48345,Ku,2025-03-24 17:26:41,71.32310002002386,Aalsmeerbaan36R_L,Boeing 787-9,KLM
Mon 01:25:51 PM,51.3404,3.9643,↑ 11°,384.0,442.0,"19,925",-985,FlightAware ADS-B (EHTE),Arrivals,KLM1622,2025-03-24 18:58:16,48351,Co,2025-03-24 17:39:28,78.77510297872848,Zwanenburgbaan36C_L,Boeing 737-800,KLM
Mon 01:25:54 PM,51.291,3.6548,↑ 359°,315.0,362.0,"21,100","-1,246",FlightAware ADS-B (RTM / EHRD),Arrivals,IBS1793,2025-03-24 18:58:16,48354,Da,2025-03-24 17:42:28,67.29988761941017,Zwanenburgbaan36C_L,Airbus A320 214,Iberia
Mon 01:25:56 PM,53.0084,3.6578,↓ 176°,381.0,438.0,"18,700","-1,750",FlightAware ADS-B (NWI / EGSH),Arrivals,KLM1158,2025-03-24 18:58:16,48356,Co,2025-03-24 18:26:11,78.70960615852167,Zwanenburgbaan36C_L,Embraer ERJ 190-100 STD,KLM
Mon 01:25:57 AM,13.5397,100.6271,← 286°,297.0,342.0,"5,175","1,776",FlightAware ADS-B (BKK / VTBS),Arrivals,KLM844,2025-03-24 18:58:16,5157,Co,2025-03-24 17:34:00,68.17734625488245,Aalsmeerbaan36R_L,Boeing 777-300ER,KLM
